{"type": "FeatureCollection", "features": [{"geometry": {"type": "Point", "coordinates": [-73.98590324512865, 40.7641266507939]}, "type": "Feature", "properties": {"FacName": "PS 35", "FacAddress": "317 W 52 St", "SchoolDist": 2.0, "FacType": 1007.0}}, {"geometry": {"type": "Point", "coordinates": [-73.9420092072491, 40.802547437133896]}, "type": "Feature", "properties": {"FacName": "PS 79 HORAN SCHOOL", "FacAddress": "55 E 120 St", "SchoolDist": 5.0, "FacType": 1007.0}}, {"geometry": {"type": "Point", "coordinates": [-74.01745328878405, 40.706371090864444]}, "type": "Feature", "properties": {"FacName": "PS 94", "FacAddress": "55 Battery Pl", "SchoolDist": 2.0, "FacType": 1007.0}}, {"geometry": {"type": "Point", "coordinates": [-73.93546123543214, 40.8056537316714]}, "type": "Feature", "properties": {"FacName": "PS 138", "FacAddress": "144-176 E 128 St", "SchoolDist": 5.0, "FacType": 1007.0}}, {"geometry": {"type": "Point", "coordinates": [-73.95559764525753, 40.78079599066403]}, "type": "Feature", "properties": {"FacName": "PS 169 ROBERT F KENNEDY", "FacAddress": "110 E 88 St", "SchoolDist": 2.0, "FacType": 1007.0}}, {"geometry": {"type": "Point", "coordinates": [-73.9825903390366, 40.73266589234572]}, "type": "Feature", "properties": {"FacName": "PS 226", "FacAddress": "345 E 15 St", "SchoolDist": 2.0, "FacType": 1007.0}}, {"geometry": {"type": "Point", "coordinates": [-74.00615528879, 40.72904945673158]}, "type": "Feature", "properties": {"FacName": "PS 721 MANHATTAN OCCUPATIONAL TRAINING CENTER", "FacAddress": "250 W Houston St", "SchoolDist": 2.0, "FacType": 1007.0}}, {"geometry": {"type": "Point", "coordinates": [-73.98778741736294, 40.72588701430209]}, "type": "Feature", "properties": {"FacName": "MANHATTAN SCHOOL FOR CAREER DEVELOPMENT", "FacAddress": "113 E 4 St", "SchoolDist": 1.0, "FacType": 1007.0}}, {"geometry": {"type": "Point", "coordinates": [-73.97922156811143, 40.78633056587355]}, "type": "Feature", "properties": {"FacName": "PS 811 MICKEY MANTLE SCHOOL", "FacAddress": "466 W End Ave", "SchoolDist": 3.0, "FacType": 1007.0}}, {"geometry": {"type": "Point", "coordinates": [-73.82909267726305, 40.82702532812238]}, "type": "Feature", "properties": {"FacName": "PS 10", "FacAddress": "2750 Lafayette Ave", "SchoolDist": 8.0, "FacType": 1007.0}}, {"geometry": {"type": "Point", "coordinates": [-73.844685033149, 40.84062274785687]}, "type": "Feature", "properties": {"FacName": "PS 12 LEWIS AND CLARK SCHOOL", "FacAddress": "2555 Tratman Ave", "SchoolDist": 11.0, "FacType": 1007.0}}, {"geometry": {"type": "Point", "coordinates": [-73.90539296581122, 40.8187115830152]}, "type": "Feature", "properties": {"FacName": "PS 17", "FacAddress": "778 Forest Ave", "SchoolDist": 7.0, "FacType": 1007.0}}, {"geometry": {"type": "Point", "coordinates": [-73.92596673356684, 40.81367634223751]}, "type": "Feature", "properties": {"FacName": "PS 168", "FacAddress": "339 Morris Ave", "SchoolDist": 7.0, "FacType": 1007.0}}, {"geometry": {"type": "Point", "coordinates": [-73.83194767399449, 40.87405736482275]}, "type": "Feature", "properties": {"FacName": "PS 176", "FacAddress": "850 Baychester Ave", "SchoolDist": 11.0, "FacType": 1007.0}}, {"geometry": {"type": "Point", "coordinates": [-73.89781170993392, 40.831399432262934]}, "type": "Feature", "properties": {"FacName": "PS 186 WALTER J DAMROSCH SCHOOL", "FacAddress": "750 Jennings St", "SchoolDist": 12.0, "FacType": 1007.0}}, {"geometry": {"type": "Point", "coordinates": [-73.88363526718891, 40.85021197170139]}, "type": "Feature", "properties": {"FacName": "PS 188", "FacAddress": "770 Grote St", "SchoolDist": 10.0, "FacType": 1007.0}}, {"geometry": {"type": "Point", "coordinates": [-73.89425194488174, 40.83164599254967]}, "type": "Feature", "properties": {"FacName": "VIDA BOGART SCHOOL FOR ALL CHILDREN", "FacAddress": "1330 Bristow St", "SchoolDist": 12.0, "FacType": 1007.0}}, {"geometry": {"type": "Point", "coordinates": [-73.83908175491315, 40.84271751688926]}, "type": "Feature", "properties": {"FacName": "PS 721 STEVEN MCSWEENEY SCHOOL", "FacAddress": "2697 Westchester Ave", "SchoolDist": 11.0, "FacType": 1007.0}}, {"geometry": {"type": "Point", "coordinates": [-73.8321711494389, 40.882934034633216]}, "type": "Feature", "properties": {"FacName": "PS 723", "FacAddress": "3540 Bivona St", "SchoolDist": 11.0, "FacType": 1007.0}}, {"geometry": {"type": "Point", "coordinates": [-73.9093631236003, 40.811051508816746]}, "type": "Feature", "properties": {"FacName": "JM RAPPORT SCHOOL FOR CAREER DEVELOPMENT", "FacAddress": "470 Jackson Ave", "SchoolDist": 7.0, "FacType": 1007.0}}, {"geometry": {"type": "Point", "coordinates": [-73.8868749549918, 40.83049170095855]}, "type": "Feature", "properties": {"FacName": "PS 811", "FacAddress": "1434 Longfellow Ave", "SchoolDist": 12.0, "FacType": 1007.0}}, {"geometry": {"type": "Point", "coordinates": [-73.88802761762857, 40.656596356728265]}, "type": "Feature", "properties": {"FacName": "PS 4", "FacAddress": "530 Stanley Ave", "SchoolDist": 19.0, "FacType": 1007.0}}, {"geometry": {"type": "Point", "coordinates": [-73.88719933759705, 40.660465691097144]}, "type": "Feature", "properties": {"FacName": "PS 36", "FacAddress": "2045 Linden Blvd", "SchoolDist": 19.0, "FacType": 1007.0}}, {"geometry": {"type": "Point", "coordinates": [-73.9887112351305, 40.66077021956637]}, "type": "Feature", "properties": {"FacName": "PS 53", "FacAddress": "544 7 Ave", "SchoolDist": 15.0, "FacType": 1007.0}}, {"geometry": {"type": "Point", "coordinates": [-73.97665203699442, 40.67880982097139]}, "type": "Feature", "properties": {"FacName": "PS 77", "FacAddress": "62 Park Pl", "SchoolDist": 13.0, "FacType": 1007.0}}, {"geometry": {"type": "Point", "coordinates": [-73.94560420899703, 40.68191739469866]}, "type": "Feature", "properties": {"FacName": "PS 140", "FacAddress": "141 Macon St", "SchoolDist": 13.0, "FacType": 1007.0}}, {"geometry": {"type": "Point", "coordinates": [-73.95151049042818, 40.65641831097708]}, "type": "Feature", "properties": {"FacName": "PS 141", "FacAddress": "655 Parkside Ave", "SchoolDist": 17.0, "FacType": 1007.0}}, {"geometry": {"type": "Point", "coordinates": [-73.9892538090143, 40.626452226902785]}, "type": "Feature", "properties": {"FacName": "PS 231", "FacAddress": "5601 16 Ave", "SchoolDist": 20.0, "FacType": 1007.0}}, {"geometry": {"type": "Point", "coordinates": [-73.94757199742283, 40.696693408041064]}, "type": "Feature", "properties": {"FacName": "PS 368", "FacAddress": "70 Tompkins Ave", "SchoolDist": 14.0, "FacType": 1007.0}}, {"geometry": {"type": "Point", "coordinates": [-73.98331609252692, 40.68742956482943]}, "type": "Feature", "properties": {"FacName": "PS 369 COY L COX SCHOOL", "FacAddress": "383 State St", "SchoolDist": 15.0, "FacType": 1007.0}}, {"geometry": {"type": "Point", "coordinates": [-73.96987646635282, 40.577706679732465]}, "type": "Feature", "properties": {"FacName": "PS 370", "FacAddress": "3000 W st St", "SchoolDist": 21.0, "FacType": 1007.0}}, {"geometry": {"type": "Point", "coordinates": [-74.00516811017218, 40.654303954793335]}, "type": "Feature", "properties": {"FacName": "PS 371 LILLIAN L RASHKIS", "FacAddress": "355 37 St", "SchoolDist": 15.0, "FacType": 1007.0}}, {"geometry": {"type": "Point", "coordinates": [-73.98550724008375, 40.676181783397475]}, "type": "Feature", "properties": {"FacName": "PS 372 CHILDREN'S SCHOOL (THE)", "FacAddress": "512 Carroll St", "SchoolDist": 15.0, "FacType": 1007.0}}, {"geometry": {"type": "Point", "coordinates": [-73.94521142235028, 40.69921475027905]}, "type": "Feature", "properties": {"FacName": "PS 373 BROOKLYN TRANSITION CENTER", "FacAddress": "185 Ellery St", "SchoolDist": 14.0, "FacType": 1007.0}}, {"geometry": {"type": "Point", "coordinates": [-73.9117921970767, 40.66818628579069]}, "type": "Feature", "properties": {"FacName": "PS 396", "FacAddress": "110 Chester St", "SchoolDist": 23.0, "FacType": 1007.0}}, {"geometry": {"type": "Point", "coordinates": [-73.9818827783465, 40.587966525459734]}, "type": "Feature", "properties": {"FacName": "PS 721 BROOKLYN OCCUPATIONAL TRAINING CENTER", "FacAddress": "64 Ave X", "SchoolDist": 21.0, "FacType": 1007.0}}, {"geometry": {"type": "Point", "coordinates": [-73.96923418998162, 40.6825656716563]}, "type": "Feature", "properties": {"FacName": "PS 753 SCHOOL FOR CAREER DEVELOPMENT", "FacAddress": "510 Clermont Ave", "SchoolDist": 13.0, "FacType": 1007.0}}, {"geometry": {"type": "Point", "coordinates": [-73.95580289424863, 40.58037007629659]}, "type": "Feature", "properties": {"FacName": "PS 771", "FacAddress": "1075 Oceanview Ave", "SchoolDist": 21.0, "FacType": 1007.0}}, {"geometry": {"type": "Point", "coordinates": [-73.93861383896522, 40.591130035451854]}, "type": "Feature", "properties": {"FacName": "PS 811 CONNIE LEKAS SCHOOL", "FacAddress": "2525 Haring St", "SchoolDist": 22.0, "FacType": 1007.0}}, {"geometry": {"type": "Point", "coordinates": [-73.77812189145298, 40.741697807726766]}, "type": "Feature", "properties": {"FacName": "PS 4", "FacAddress": "196-25 Peck Ave", "SchoolDist": 26.0, "FacType": 1007.0}}, {"geometry": {"type": "Point", "coordinates": [-73.91245105150544, 40.71823766954628]}, "type": "Feature", "properties": {"FacName": "PS 9", "FacAddress": "58-74 57 St", "SchoolDist": 24.0, "FacType": 1007.0}}, {"geometry": {"type": "Point", "coordinates": [-73.72409647264287, 40.74760855539386]}, "type": "Feature", "properties": {"FacName": "PS 23 AT QUEENS CHILDREN CENTER", "FacAddress": "74-03 Commonwealth Blvd", "SchoolDist": 26.0, "FacType": 1007.0}}, {"geometry": {"type": "Point", "coordinates": [-73.90485282882014, 40.698688914914136]}, "type": "Feature", "properties": {"FacName": "ROBERT E PEARY SCHOOL", "FacAddress": "16-66 Hancock St", "SchoolDist": 24.0, "FacType": 1007.0}}, {"geometry": {"type": "Point", "coordinates": [-73.78741227655873, 40.74347746636092]}, "type": "Feature", "properties": {"FacName": "PS 177", "FacAddress": "56-37 188 St", "SchoolDist": 26.0, "FacType": 1007.0}}, {"geometry": {"type": "Point", "coordinates": [-73.7216305933847, 40.74955140299022]}, "type": "Feature", "properties": {"FacName": "PS 224", "FacAddress": "252-12 72 Ave", "SchoolDist": 26.0, "FacType": 1007.0}}, {"geometry": {"type": "Point", "coordinates": [-73.8560469911286, 40.70900521113311]}, "type": "Feature", "properties": {"FacName": "PS 233", "FacAddress": "91-30 Metropolitan Ave", "SchoolDist": 28.0, "FacType": 1007.0}}, {"geometry": {"type": "Point", "coordinates": [-73.80936933878594, 40.724198278131276]}, "type": "Feature", "properties": {"FacName": "PS 255", "FacAddress": "158-40 76 Rd", "SchoolDist": 25.0, "FacType": 1007.0}}, {"geometry": {"type": "Point", "coordinates": [-73.95948440889252, 40.7427058757404]}, "type": "Feature", "properties": {"FacName": "RIVERVIEW SCHOOL", "FacAddress": "1-50 51 Ave", "SchoolDist": 30.0, "FacType": 1007.0}}, {"geometry": {"type": "Point", "coordinates": [-73.86788274541559, 40.73561065171008]}, "type": "Feature", "properties": {"FacName": "JOHN F KENNEDY JR SCHOOL", "FacAddress": "57-12 94 St", "SchoolDist": 24.0, "FacType": 1007.0}}, {"geometry": {"type": "Point", "coordinates": [-73.80087927825713, 40.68347070572561]}, "type": "Feature", "properties": {"FacName": "QUEENS TRANSITION CENTER", "FacAddress": "142-10 Linden Blvd", "SchoolDist": 28.0, "FacType": 1007.0}}, {"geometry": {"type": "Point", "coordinates": [-73.72833683160935, 40.756525381332246]}, "type": "Feature", "properties": {"FacName": "PS 811", "FacAddress": "61-25 Marathon Pkwy", "SchoolDist": 26.0, "FacType": 1007.0}}, {"geometry": {"type": "Point", "coordinates": [-74.22272515685133, 40.513620037273434]}, "type": "Feature", "properties": {"FacName": "SOUTH RICHMOND HIGH SCHOOL IS/PS 25", "FacAddress": "6581 Hylan Blvd", "SchoolDist": 31.0, "FacType": 1007.0}}, {"geometry": {"type": "Point", "coordinates": [-74.1513752525947, 40.56409271701833]}, "type": "Feature", "properties": {"FacName": "GREAT KILLS HIGH SCHOOL", "FacAddress": "15 Fairfield St", "SchoolDist": 31.0, "FacType": 1007.0}}, {"geometry": {"type": "Point", "coordinates": [-74.09546151972256, 40.64117457505762]}, "type": "Feature", "properties": {"FacName": "PS 373", "FacAddress": "91 Henderson Ave", "SchoolDist": 31.0, "FacType": 1007.0}}, {"geometry": {"type": "Point", "coordinates": [-74.07703617048098, 40.62088244054411]}, "type": "Feature", "properties": {"FacName": "RICHARD H HUNGERFORD SCHOOL (THE)", "FacAddress": "155 Tompkins Ave", "SchoolDist": 31.0, "FacType": 1007.0}}, {"geometry": {"type": "Point", "coordinates": [-73.97870408104868, 40.72201558382538]}, "type": "Feature", "properties": {"FacName": "PS 15 ROBERTO CLEMENTE", "FacAddress": "333 E 4 St", "SchoolDist": 1.0, "FacType": 1001.0}}, {"geometry": {"type": "Point", "coordinates": [-73.98447805993325, 40.72999551566271]}, "type": "Feature", "properties": {"FacName": "PS 19 ASHER LEVY", "FacAddress": "185 1 Ave", "SchoolDist": 1.0, "FacType": 1001.0}}, {"geometry": {"type": "Point", "coordinates": [-73.98631275149421, 40.72128388978085]}, "type": "Feature", "properties": {"FacName": "PS 20 ANNA SILVER", "FacAddress": "166 Essex St", "SchoolDist": 1.0, "FacType": 1001.0}}, {"geometry": {"type": "Point", "coordinates": [-73.97505886702865, 40.72600847452074]}, "type": "Feature", "properties": {"FacName": "PS 34 FRANKLIN D ROOSEVELT", "FacAddress": "730 E 12 St", "SchoolDist": 1.0, "FacType": 1001.0}}, {"geometry": {"type": "Point", "coordinates": [-73.98621469406255, 40.724437605126425]}, "type": "Feature", "properties": {"FacName": "STAR ACADEMY PS 63 (THE)", "FacAddress": "121 E 3 St", "SchoolDist": 1.0, "FacType": 1001.0}}, {"geometry": {"type": "Point", "coordinates": [-73.9819866385908, 40.72349007997039]}, "type": "Feature", "properties": {"FacName": "PS 64 ROBERT SIMON", "FacAddress": "600 E 6 St", "SchoolDist": 1.0, "FacType": 1001.0}}, {"geometry": {"type": "Point", "coordinates": [-73.97992909888274, 40.71528565309804]}, "type": "Feature", "properties": {"FacName": "PS 110 FLORENCE NIGHTINGALE", "FacAddress": "285 Delancey St", "SchoolDist": 1.0, "FacType": 1001.0}}, {"geometry": {"type": "Point", "coordinates": [-73.98303520405992, 40.71435018926595]}, "type": "Feature", "properties": {"FacName": "PS 134 HENRIETTA SZOLD", "FacAddress": "293 E Broadway", "SchoolDist": 1.0, "FacType": 1001.0}}, {"geometry": {"type": "Point", "coordinates": [-73.98303520405992, 40.71435018926595]}, "type": "Feature", "properties": {"FacName": "PS 137 JOHN L BERNSTEIN", "FacAddress": "293 E Broadway", "SchoolDist": 1.0, "FacType": 1001.0}}, {"geometry": {"type": "Point", "coordinates": [-73.98377351875442, 40.71914813711489]}, "type": "Feature", "properties": {"FacName": "PS 140 NATHAN STRAUS", "FacAddress": "123 Ridge St", "SchoolDist": 1.0, "FacType": 1001.0}}, {"geometry": {"type": "Point", "coordinates": [-73.98411647408057, 40.7181216450774]}, "type": "Feature", "properties": {"FacName": "PS 142 AMALIA CASTRO", "FacAddress": "100 Attorney St", "SchoolDist": 1.0, "FacType": 1001.0}}, {"geometry": {"type": "Point", "coordinates": [-73.9854383226995, 40.71112542333382]}, "type": "Feature", "properties": {"FacName": "PS 184 SHUANG WEN", "FacAddress": "327 Cherry St", "SchoolDist": 1.0, "FacType": 1001.0}}, {"geometry": {"type": "Point", "coordinates": [-73.97736276713978, 40.71986892627885]}, "type": "Feature", "properties": {"FacName": "PS 188 ISLAND SCHOOL (THE)", "FacAddress": "442 E Houston St", "SchoolDist": 1.0, "FacType": 1001.0}}, {"geometry": {"type": "Point", "coordinates": [-73.98447805993325, 40.72999551566271]}, "type": "Feature", "properties": {"FacName": "TECHNOLOGY, ARTS AND SCIENCES STUDIO", "FacAddress": "185 1 Ave", "SchoolDist": 1.0, "FacType": 1002.0}}, {"geometry": {"type": "Point", "coordinates": [-73.97825853906787, 40.72753795226395]}, "type": "Feature", "properties": {"FacName": "EAST VILLAGE COMMUNITY SCHOOL (THE)", "FacAddress": "610 E 12 St", "SchoolDist": 1.0, "FacType": 1001.0}}, {"geometry": {"type": "Point", "coordinates": [-73.98605826860624, 40.713359736376674]}, "type": "Feature", "properties": {"FacName": "UNIV NEIGHBORHOOD MIDDLE SCHOOL", "FacAddress": "220 Henry St", "SchoolDist": 1.0, "FacType": 1002.0}}, {"geometry": {"type": "Point", "coordinates": [-73.98605826860624, 40.713359736376674]}, "type": "Feature", "properties": {"FacName": "CASTLE", "FacAddress": "220 Henry St", "SchoolDist": 1.0, "FacType": 1002.0}}, {"geometry": {"type": "Point", "coordinates": [-73.97825853906787, 40.72753795226395]}, "type": "Feature", "properties": {"FacName": "CHILDREN'S WORKSHOP SCHOOL (THE)", "FacAddress": "610 E 12 St", "SchoolDist": 1.0, "FacType": 1001.0}}, {"geometry": {"type": "Point", "coordinates": [-73.98621469406255, 40.724437605126425]}, "type": "Feature", "properties": {"FacName": "NEIGHBORHOOD SCHOOL", "FacAddress": "121 E 3 St", "SchoolDist": 1.0, "FacType": 1001.0}}, {"geometry": {"type": "Point", "coordinates": [-73.9819866385908, 40.72349007997039]}, "type": "Feature", "properties": {"FacName": "EARTH SCHOOL", "FacAddress": "600 E 6 St", "SchoolDist": 1.0, "FacType": 1001.0}}, {"geometry": {"type": "Point", "coordinates": [-73.98604244154555, 40.72003773657528]}, "type": "Feature", "properties": {"FacName": "SCHOOL FOR GLOBAL LEADERS", "FacAddress": "145 Stanton St", "SchoolDist": 1.0, "FacType": 1002.0}}, {"geometry": {"type": "Point", "coordinates": [-73.9819866385908, 40.72349007997039]}, "type": "Feature", "properties": {"FacName": "TOMPKINS SQUARE MIDDLE SCHOOL", "FacAddress": "600 E 6 St", "SchoolDist": 1.0, "FacType": 1002.0}}, {"geometry": {"type": "Point", "coordinates": [-73.98605826860624, 40.713359736376674]}, "type": "Feature", "properties": {"FacName": "HENRY STREET SCHOOL", "FacAddress": "220 Henry St", "SchoolDist": 1.0, "FacType": 1004.0}}, {"geometry": {"type": "Point", "coordinates": [-73.98411787311142, 40.712250601683]}, "type": "Feature", "properties": {"FacName": "UNIVERSITY NEIGHBORHOOD HIGH SCHOOL", "FacAddress": "200 Monroe St", "SchoolDist": 1.0, "FacType": 1005.0}}, {"geometry": {"type": "Point", "coordinates": [-73.98247579900185, 40.729152588267844]}, "type": "Feature", "properties": {"FacName": "EAST SIDE COMMUNITY SCHOOL", "FacAddress": "420 E 12 St", "SchoolDist": 1.0, "FacType": 1004.0}}, {"geometry": {"type": "Point", "coordinates": [-73.99047215729216, 40.72241240438916]}, "type": "Feature", "properties": {"FacName": "FORSYTHE SATELLITE ACADEMY", "FacAddress": "198 Forsyth St", "SchoolDist": 1.0, "FacType": 1005.0}}, {"geometry": {"type": "Point", "coordinates": [-73.98604244154555, 40.72003773657528]}, "type": "Feature", "properties": {"FacName": "MARTA VALLE HIGH SCHOOL", "FacAddress": "145 Stanton St", "SchoolDist": 1.0, "FacType": 1005.0}}, {"geometry": {"type": "Point", "coordinates": [-73.98604244154555, 40.72003773657528]}, "type": "Feature", "properties": {"FacName": "LOWER EAST SIDE PREP HIGH SCHOOL", "FacAddress": "145 Stanton St", "SchoolDist": 1.0, "FacType": 1005.0}}, {"geometry": {"type": "Point", "coordinates": [-73.97958514248258, 40.71941371175606]}, "type": "Feature", "properties": {"FacName": "NEW EXPLORATIONS SCI, TECH & MATH", "FacAddress": "111 Columbia St", "SchoolDist": 1.0, "FacType": 1006.0}}, {"geometry": {"type": "Point", "coordinates": [-73.99047215729216, 40.72241240438916]}, "type": "Feature", "properties": {"FacName": "CASCADES HIGH SCHOOL", "FacAddress": "198 Forsyth St", "SchoolDist": 1.0, "FacType": 1005.0}}, {"geometry": {"type": "Point", "coordinates": [-73.97609348981834, 40.71827396489956]}, "type": "Feature", "properties": {"FacName": "BARD HIGH SCHOOL EARLY COLLEGE", "FacAddress": "525 E Houston St", "SchoolDist": 1.0, "FacType": 1005.0}}, {"geometry": {"type": "Point", "coordinates": [-73.97736276713978, 40.71986892627885]}, "type": "Feature", "properties": {"FacName": "GIRLS PREP CHARTER SCHOOL", "FacAddress": "442 E Houston St", "SchoolDist": 1.0, "FacType": 1011.0}}, {"geometry": {"type": "Point", "coordinates": [-73.98411647408057, 40.7181216450774]}, "type": "Feature", "properties": {"FacName": "MANHATTAN CHARTER SCHOOL", "FacAddress": "100 Attorney St", "SchoolDist": 1.0, "FacType": 1011.0}}, {"geometry": {"type": "Point", "coordinates": [-73.99165937820713, 40.720021811982384]}, "type": "Feature", "properties": {"FacName": "INNOVATE MANHATTAN CHARTER SCHOOL", "FacAddress": "38 Delancey St", "SchoolDist": 1.0, "FacType": 1012.0}}, {"geometry": {"type": "Point", "coordinates": [-73.98605826860624, 40.713359736376674]}, "type": "Feature", "properties": {"FacName": "MANHATTAN CHARTER SCHOOL II", "FacAddress": "220 Henry St", "SchoolDist": 1.0, "FacType": 1011.0}}, {"geometry": {"type": "Point", "coordinates": [-73.99747861571866, 40.71255084809299]}, "type": "Feature", "properties": {"FacName": "PS 1 ALFRED E SMITH", "FacAddress": "8 Henry St", "SchoolDist": 2.0, "FacType": 1001.0}}, {"geometry": {"type": "Point", "coordinates": [-73.9915231973567, 40.71290463807365]}, "type": "Feature", "properties": {"FacName": "PS 2 MEYER LONDON", "FacAddress": "122 Henry St", "SchoolDist": 2.0, "FacType": 1001.0}}, {"geometry": {"type": "Point", "coordinates": [-74.00597159869432, 40.732606669079]}, "type": "Feature", "properties": {"FacName": "PS 3 CHARRETTE SCHOOL", "FacAddress": "490 Hudson St", "SchoolDist": 2.0, "FacType": 1001.0}}, {"geometry": {"type": "Point", "coordinates": [-73.96041994207249, 40.77769894069832]}, "type": "Feature", "properties": {"FacName": "PS 6 LILLIE D BLAKE", "FacAddress": "45 E 81 St", "SchoolDist": 2.0, "FacType": 1001.0}}, {"geometry": {"type": "Point", "coordinates": [-74.00074703042843, 40.7441869303208]}, "type": "Feature", "properties": {"FacName": "PS 11 WILLIAM T HARRIS", "FacAddress": "320 W 21 St", "SchoolDist": 2.0, "FacType": 1001.0}}, {"geometry": {"type": "Point", "coordinates": [-74.00023098230348, 40.74900671204405]}, "type": "Feature", "properties": {"FacName": "PS 33 CHELSEA PREP", "FacAddress": "281 9 Ave", "SchoolDist": 2.0, "FacType": 1001.0}}, {"geometry": {"type": "Point", "coordinates": [-73.98199077144886, 40.73489728519127]}, "type": "Feature", "properties": {"FacName": "PS 40 AUGUSTUS SAINT-GAUDENS", "FacAddress": "320 E 19 St", "SchoolDist": 2.0, "FacType": 1001.0}}, {"geometry": {"type": "Point", "coordinates": [-73.99916646688084, 40.735450385614485]}, "type": "Feature", "properties": {"FacName": "PS 41 GREENWICH VILLAGE", "FacAddress": "116 W 11 St", "SchoolDist": 2.0, "FacType": 1001.0}}, {"geometry": {"type": "Point", "coordinates": [-73.99082657291063, 40.71612693410998]}, "type": "Feature", "properties": {"FacName": "PS 42 BENJAMIN ALTMAN", "FacAddress": "71 Hester St", "SchoolDist": 2.0, "FacType": 1001.0}}, {"geometry": {"type": "Point", "coordinates": [-73.98133307814126, 40.73837478266778]}, "type": "Feature", "properties": {"FacName": "AMERICAN SIGN LANG & ENG SECONDAR", "FacAddress": "223 E 23 St", "SchoolDist": 2.0, "FacType": 1005.0}}, {"geometry": {"type": "Point", "coordinates": [-73.94785614092913, 40.78065276562149]}, "type": "Feature", "properties": {"FacName": "PS 51 ELIAS HOWE", "FacAddress": "323 E 91 St", "SchoolDist": 2.0, "FacType": 1001.0}}, {"geometry": {"type": "Point", "coordinates": [-73.9663723805506, 40.75930009146852]}, "type": "Feature", "properties": {"FacName": "PS 59 BEEKMAN HILL INTERNATIONAL", "FacAddress": "231-249 E 56 St", "SchoolDist": 2.0, "FacType": 1001.0}}, {"geometry": {"type": "Point", "coordinates": [-73.94999770758405, 40.78499588544829]}, "type": "Feature", "properties": {"FacName": "PS 77 LOWER LAB SCHOOL", "FacAddress": "1700 3 Ave", "SchoolDist": 2.0, "FacType": 1001.0}}, {"geometry": {"type": "Point", "coordinates": [-74.01396774606633, 40.717007520392336]}, "type": "Feature", "properties": {"FacName": "PS 89", "FacAddress": "201 Warren St", "SchoolDist": 2.0, "FacType": 1001.0}}, {"geometry": {"type": "Point", "coordinates": [-73.98103428179807, 40.735877008444504]}, "type": "Feature", "properties": {"FacName": "JHS 104 SIMON BARUCH", "FacAddress": "330 E 21 St", "SchoolDist": 2.0, "FacType": 1002.0}}, {"geometry": {"type": "Point", "coordinates": [-73.98981252118561, 40.7659084001951]}, "type": "Feature", "properties": {"FacName": "PS 111 ADOLPH S OCHS", "FacAddress": "440 W 53 St", "SchoolDist": 2.0, "FacType": 1001.0}}, {"geometry": {"type": "Point", "coordinates": [-73.94748063257003, 40.78063063725474]}, "type": "Feature", "properties": {"FacName": "EAST SIDE MIDDLE SCHOOL", "FacAddress": "331 E 91 St", "SchoolDist": 2.0, "FacType": 1002.0}}, {"geometry": {"type": "Point", "coordinates": [-73.97790654998055, 40.74451143918708]}, "type": "Feature", "properties": {"FacName": "PS 116 MARY LINDLEY MURRAY", "FacAddress": "210 E 33 St", "SchoolDist": 2.0, "FacType": 1001.0}}, {"geometry": {"type": "Point", "coordinates": [-73.99593822994478, 40.714853658782545]}, "type": "Feature", "properties": {"FacName": "PS 124 YUNG WING", "FacAddress": "40 Division St", "SchoolDist": 2.0, "FacType": 1001.0}}, {"geometry": {"type": "Point", "coordinates": [-73.99702780617501, 40.71070910199746]}, "type": "Feature", "properties": {"FacName": "PS 126 JACOB AUGUST RIIS", "FacAddress": "80 Catherine St", "SchoolDist": 2.0, "FacType": 1001.0}}, {"geometry": {"type": "Point", "coordinates": [-73.9983261376499, 40.71865795655236]}, "type": "Feature", "properties": {"FacName": "PS 130 HERNANDO DE SOTO", "FacAddress": "143 Baxter St", "SchoolDist": 2.0, "FacType": 1001.0}}, {"geometry": {"type": "Point", "coordinates": [-73.99361502992222, 40.716182017631205]}, "type": "Feature", "properties": {"FacName": "MS 131", "FacAddress": "100 Hester St", "SchoolDist": 2.0, "FacType": 1002.0}}, {"geometry": {"type": "Point", "coordinates": [-74.01086942196144, 40.719519310180814]}, "type": "Feature", "properties": {"FacName": "PS 150", "FacAddress": "334 Greenwich St", "SchoolDist": 2.0, "FacType": 1001.0}}, {"geometry": {"type": "Point", "coordinates": [-73.94728777379584, 40.77794619707987]}, "type": "Feature", "properties": {"FacName": "YORKVILLE COMMUNITY SCHOOL", "FacAddress": "421 E 88 St", "SchoolDist": 2.0, "FacType": 1001.0}}, {"geometry": {"type": "Point", "coordinates": [-73.95074890880075, 40.77021305575288]}, "type": "Feature", "properties": {"FacName": "PS 158 BAYARD TAYLOR", "FacAddress": "1458 York Ave", "SchoolDist": 2.0, "FacType": 1001.0}}, {"geometry": {"type": "Point", "coordinates": [-73.95782055654027, 40.77154157081404]}, "type": "Feature", "properties": {"FacName": "JHS 167 ROBERT F WAGNER", "FacAddress": "220 E 76 St", "SchoolDist": 2.0, "FacType": 1002.0}}, {"geometry": {"type": "Point", "coordinates": [-73.95773520912068, 40.76380411509362]}, "type": "Feature", "properties": {"FacName": "PS 183 ROBERT L STEVENSON", "FacAddress": "419 E 66 St", "SchoolDist": 2.0, "FacType": 1001.0}}, {"geometry": {"type": "Point", "coordinates": [-73.94999770758405, 40.78499588544829]}, "type": "Feature", "properties": {"FacName": "PS 198 ISADOR E IDA STRAUS", "FacAddress": "1700 3 Ave", "SchoolDist": 2.0, "FacType": 1001.0}}, {"geometry": {"type": "Point", "coordinates": [-73.98866892432169, 40.76132457398588]}, "type": "Feature", "properties": {"FacName": "PS 212 MIDTOWN WEST", "FacAddress": "328 W 48 St", "SchoolDist": 2.0, "FacType": 1001.0}}, {"geometry": {"type": "Point", "coordinates": [-73.95260272049491, 40.75760723088394]}, "type": "Feature", "properties": {"FacName": "PS/IS 217 ROOSEVELT ISLAND", "FacAddress": "645 Main St", "SchoolDist": 2.0, "FacType": 1001.0}}, {"geometry": {"type": "Point", "coordinates": [-74.01164085521462, 40.716231011750786]}, "type": "Feature", "properties": {"FacName": "PS 234 INDEPENDENCE SCHOOL", "FacAddress": "292 Greenwich St", "SchoolDist": 2.0, "FacType": 1001.0}}, {"geometry": {"type": "Point", "coordinates": [-73.9815360023533, 40.735322650017146]}, "type": "Feature", "properties": {"FacName": "MS 255 SALK SCHOOL OF SCIENCE", "FacAddress": "319 E 19 St", "SchoolDist": 2.0, "FacType": 1002.0}}, {"geometry": {"type": "Point", "coordinates": [-73.99757813371204, 40.753324174559644]}, "type": "Feature", "properties": {"FacName": "MS 260 CLINTON SCH WRITERS & ARTISTS", "FacAddress": "425 W 33 St", "SchoolDist": 2.0, "FacType": 1002.0}}, {"geometry": {"type": "Point", "coordinates": [-73.96387199626719, 40.7639050134865]}, "type": "Feature", "properties": {"FacName": "EAST SIDE ELEMENTARY-PS 267", "FacAddress": "213 E 63 St", "SchoolDist": 2.0, "FacType": 1001.0}}, {"geometry": {"type": "Point", "coordinates": [-74.01745328878405, 40.706371090864444]}, "type": "Feature", "properties": {"FacName": "BATTERY PARK CITY SCHOOL", "FacAddress": "55 Battery Pl", "SchoolDist": 2.0, "FacType": 1001.0}}, {"geometry": {"type": "Point", "coordinates": [-73.97241387580375, 40.74447731764743]}, "type": "Feature", "properties": {"FacName": "RIVER SCHOOL (THE)", "FacAddress": "425 E 35 St", "SchoolDist": 2.0, "FacType": 1008.0}}, {"geometry": {"type": "Point", "coordinates": [-74.01396774606633, 40.717007520392336]}, "type": "Feature", "properties": {"FacName": "IS 289", "FacAddress": "201 Warren St", "SchoolDist": 2.0, "FacType": 1002.0}}, {"geometry": {"type": "Point", "coordinates": [-73.95278156900739, 40.77518188410955]}, "type": "Feature", "properties": {"FacName": "PS 290 MANHATTAN NEW SCHOOL", "FacAddress": "311 E 82 St", "SchoolDist": 2.0, "FacType": 1001.0}}, {"geometry": {"type": "Point", "coordinates": [-74.00221938349583, 40.742509869591466]}, "type": "Feature", "properties": {"FacName": "NYC LAB MS-COLLABORATIVE STUDIES", "FacAddress": "333 W 17 St", "SchoolDist": 2.0, "FacType": 1002.0}}, {"geometry": {"type": "Point", "coordinates": [-74.00615739565566, 40.71280322951569]}, "type": "Feature", "properties": {"FacName": "PECK SLIP SCHOOL (THE)", "FacAddress": "52 Chambers St", "SchoolDist": 2.0, "FacType": 1001.0}}, {"geometry": {"type": "Point", "coordinates": [-73.98133307814126, 40.73837478266778]}, "type": "Feature", "properties": {"FacName": "47 AMER SIGN LANG & ENG LOWER", "FacAddress": "223 E 23 St", "SchoolDist": 2.0, "FacType": 1001.0}}, {"geometry": {"type": "Point", "coordinates": [-74.00567749019143, 40.71096975317433]}, "type": "Feature", "properties": {"FacName": "SPRUCE STREET SCHOOL", "FacAddress": "12 Spruce St", "SchoolDist": 2.0, "FacType": 1001.0}}, {"geometry": {"type": "Point", "coordinates": [-74.00221938349583, 40.742509869591466]}, "type": "Feature", "properties": {"FacName": "NYC LAB HS-COLLABORATIVE STUDIES", "FacAddress": "333 W 17 St", "SchoolDist": 2.0, "FacType": 1005.0}}, {"geometry": {"type": "Point", "coordinates": [-73.98532394717012, 40.7391219323742]}, "type": "Feature", "properties": {"FacName": "SCHOOL OF THE FUTURE HIGH SCHOOL", "FacAddress": "127 E 22 St", "SchoolDist": 2.0, "FacType": 1004.0}}, {"geometry": {"type": "Point", "coordinates": [-74.00221938349583, 40.742509869591466]}, "type": "Feature", "properties": {"FacName": "NYC MUSEUM SCHOOL", "FacAddress": "333 W 17 St", "SchoolDist": 2.0, "FacType": 1005.0}}, {"geometry": {"type": "Point", "coordinates": [-73.95327964437563, 40.77028821756124]}, "type": "Feature", "properties": {"FacName": "ELEANOR ROOSEVELT HIGH SCHOOL", "FacAddress": "411 E 76 St", "SchoolDist": 2.0, "FacType": 1005.0}}, {"geometry": {"type": "Point", "coordinates": [-74.01123849413071, 40.70468383598532]}, "type": "Feature", "properties": {"FacName": "MILLENNIUM HIGH SCHOOL", "FacAddress": "75 Broad St", "SchoolDist": 2.0, "FacType": 1005.0}}, {"geometry": {"type": "Point", "coordinates": [-73.94785614092913, 40.78065276562149]}, "type": "Feature", "properties": {"FacName": "PS 527 EAST SIDE SCHOOL-SOCIAL ACTIO", "FacAddress": "323 E 91 St", "SchoolDist": 2.0, "FacType": 1001.0}}, {"geometry": {"type": "Point", "coordinates": [-74.0129013294843, 40.7054274922312]}, "type": "Feature", "properties": {"FacName": "LOWER MANHATTAN COM MIDDLE SCHOOL", "FacAddress": "26 Broadway", "SchoolDist": 2.0, "FacType": 1002.0}}, {"geometry": {"type": "Point", "coordinates": [-73.99035434760158, 40.763676971726554]}, "type": "Feature", "properties": {"FacName": "URBAN ASSEMBLY-EMERGENCY MANAGEMENT", "FacAddress": "439 W 49 St", "SchoolDist": 2.0, "FacType": 1008.0}}, {"geometry": {"type": "Point", "coordinates": [-74.00165564216043, 40.71129101782738]}, "type": "Feature", "properties": {"FacName": "STEPHEN T MATHER BLDG ARTS-CRAFTSMAN", "FacAddress": "411 Pearl St", "SchoolDist": 2.0, "FacType": 1008.0}}, {"geometry": {"type": "Point", "coordinates": [-73.95977730839569, 40.765638333792715]}, "type": "Feature", "properties": {"FacName": "ELLA BAKER SCHOOL", "FacAddress": "317 E 67 St", "SchoolDist": 2.0, "FacType": 1001.0}}, {"geometry": {"type": "Point", "coordinates": [-73.99270419558881, 40.76547495042351]}, "type": "Feature", "properties": {"FacName": "FOOD & FINANCE HIGH SCHOOL", "FacAddress": "525 W 50 St", "SchoolDist": 2.0, "FacType": 1005.0}}, {"geometry": {"type": "Point", "coordinates": [-73.9893293413597, 40.71732901039763]}, "type": "Feature", "properties": {"FacName": "ESSEX STREET ACADEMY", "FacAddress": "350 Grand St", "SchoolDist": 2.0, "FacType": 1005.0}}, {"geometry": {"type": "Point", "coordinates": [-73.99270419558881, 40.76547495042351]}, "type": "Feature", "properties": {"FacName": "HIGH SCHOOL OF HOSPITALITY MGMNT", "FacAddress": "525 W 50 St", "SchoolDist": 2.0, "FacType": 1005.0}}, {"geometry": {"type": "Point", "coordinates": [-73.99361502992222, 40.716182017631205]}, "type": "Feature", "properties": {"FacName": "PACE HIGH SCHOOL", "FacAddress": "100 Hester St", "SchoolDist": 2.0, "FacType": 1005.0}}, {"geometry": {"type": "Point", "coordinates": [-73.99270419558881, 40.76547495042351]}, "type": "Feature", "properties": {"FacName": "URBAN ASSMBLY SCH-DESIGN & CONST", "FacAddress": "525 W 50 St", "SchoolDist": 2.0, "FacType": 1005.0}}, {"geometry": {"type": "Point", "coordinates": [-73.99270419558881, 40.76547495042351]}, "type": "Feature", "properties": {"FacName": "FACING HISTORY SCHOOL (THE)", "FacAddress": "525 W 50 St", "SchoolDist": 2.0, "FacType": 1005.0}}, {"geometry": {"type": "Point", "coordinates": [-73.9893293413597, 40.71732901039763]}, "type": "Feature", "properties": {"FacName": "URBAN ACADEMY-GOV'T & LAW", "FacAddress": "350 Grand St", "SchoolDist": 2.0, "FacType": 1005.0}}, {"geometry": {"type": "Point", "coordinates": [-73.9893293413597, 40.71732901039763]}, "type": "Feature", "properties": {"FacName": "LOWER MANHATTAN ARTS ACADEMY", "FacAddress": "350 Grand St", "SchoolDist": 2.0, "FacType": 1005.0}}, {"geometry": {"type": "Point", "coordinates": [-74.00252615926145, 40.743363480751874]}, "type": "Feature", "properties": {"FacName": "JAMES BALDWIN SCHOOL (THE)", "FacAddress": "351 W 18 St", "SchoolDist": 2.0, "FacType": 1005.0}}, {"geometry": {"type": "Point", "coordinates": [-74.0129013294843, 40.7054274922312]}, "type": "Feature", "properties": {"FacName": "URBAN SCH-BUSINESS-YNG WOMEN", "FacAddress": "26 Broadway", "SchoolDist": 2.0, "FacType": 1005.0}}, {"geometry": {"type": "Point", "coordinates": [-73.98708927326649, 40.73532615125198]}, "type": "Feature", "properties": {"FacName": "GRAMERCY ARTS HIGH SCHOOL", "FacAddress": "40 Irving Pl", "SchoolDist": 2.0, "FacType": 1005.0}}, {"geometry": {"type": "Point", "coordinates": [-74.00504007641477, 40.724649665949364]}, "type": "Feature", "properties": {"FacName": "NYC ISCHOOL", "FacAddress": "131 Ave Of The Americas", "SchoolDist": 2.0, "FacType": 1005.0}}, {"geometry": {"type": "Point", "coordinates": [-74.00252615926145, 40.743363480751874]}, "type": "Feature", "properties": {"FacName": "MANHATTAN BUSINESS ACADEMY", "FacAddress": "351 W 18 St", "SchoolDist": 2.0, "FacType": 1005.0}}, {"geometry": {"type": "Point", "coordinates": [-73.99035434760158, 40.763676971726554]}, "type": "Feature", "properties": {"FacName": "BUSINESS OF SPORTS SCHOOL", "FacAddress": "439 W 49 St", "SchoolDist": 2.0, "FacType": 1005.0}}, {"geometry": {"type": "Point", "coordinates": [-73.99361502992222, 40.716182017631205]}, "type": "Feature", "properties": {"FacName": "EMMA LAZARUS HIGH SCHOOL", "FacAddress": "100 Hester St", "SchoolDist": 2.0, "FacType": 1005.0}}, {"geometry": {"type": "Point", "coordinates": [-73.98708927326649, 40.73532615125198]}, "type": "Feature", "properties": {"FacName": "HIGH SCHOOL-LANGUAGE AND DIPLOMACY", "FacAddress": "40 Irving Pl", "SchoolDist": 2.0, "FacType": 1005.0}}, {"geometry": {"type": "Point", "coordinates": [-73.98863892960122, 40.76787077988707]}, "type": "Feature", "properties": {"FacName": "HS FOR ENVIRONMENTAL STUDIES", "FacAddress": "444 W 56 St", "SchoolDist": 2.0, "FacType": 1005.0}}, {"geometry": {"type": "Point", "coordinates": [-73.9825903390366, 40.73266589234572]}, "type": "Feature", "properties": {"FacName": "INST FOR COLLABORATIVE EDUCATION", "FacAddress": "345 E 15 St", "SchoolDist": 2.0, "FacType": 1004.0}}, {"geometry": {"type": "Point", "coordinates": [-73.98866892432169, 40.76132457398588]}, "type": "Feature", "properties": {"FacName": "PROFESSIONAL PERF ARTS HIGH SCHOOL", "FacAddress": "328 W 48 St", "SchoolDist": 2.0, "FacType": 1004.0}}, {"geometry": {"type": "Point", "coordinates": [-73.98580329821728, 40.74188595701341]}, "type": "Feature", "properties": {"FacName": "BARUCH COLLEGE CAMPUS HIGH SCHOOL", "FacAddress": "55 E 25 St", "SchoolDist": 2.0, "FacType": 1005.0}}, {"geometry": {"type": "Point", "coordinates": [-74.00252615926145, 40.743363480751874]}, "type": "Feature", "properties": {"FacName": "LANDMARK HIGH SCHOOL", "FacAddress": "351 W 18 St", "SchoolDist": 2.0, "FacType": 1005.0}}, {"geometry": {"type": "Point", "coordinates": [-73.9825903390366, 40.73266589234572]}, "type": "Feature", "properties": {"FacName": "HS-HEALTH PROFESSIONS & HUMAN SVCS", "FacAddress": "345 E 15 St", "SchoolDist": 2.0, "FacType": 1005.0}}, {"geometry": {"type": "Point", "coordinates": [-74.00252615926145, 40.743363480751874]}, "type": "Feature", "properties": {"FacName": "QUEST TO LEARN", "FacAddress": "351 W 18 St", "SchoolDist": 2.0, "FacType": 1003.0}}, {"geometry": {"type": "Point", "coordinates": [-74.01246557557423, 40.708971030425865]}, "type": "Feature", "properties": {"FacName": "LEADERSHIP & PUBLIC SERVICE HIGH SCH", "FacAddress": "90 Trinity Pl", "SchoolDist": 2.0, "FacType": 1005.0}}, {"geometry": {"type": "Point", "coordinates": [-73.98107456228261, 40.74651018146511]}, "type": "Feature", "properties": {"FacName": "MANHATTAN ACAD-ARTS AND LANGUAGE", "FacAddress": "111 E 33 St", "SchoolDist": 2.0, "FacType": 1005.0}}, {"geometry": {"type": "Point", "coordinates": [-73.99573484403166, 40.73641920736755]}, "type": "Feature", "properties": {"FacName": "LEGACY SCHOOL FOR INTEGRATED STUDIES", "FacAddress": "34 W 14 St", "SchoolDist": 2.0, "FacType": 1005.0}}, {"geometry": {"type": "Point", "coordinates": [-73.98107456228261, 40.74651018146511]}, "type": "Feature", "properties": {"FacName": "MURRAY HILL ACADEMY", "FacAddress": "111 E 33 St", "SchoolDist": 2.0, "FacType": 1005.0}}, {"geometry": {"type": "Point", "coordinates": [-74.00252615926145, 40.743363480751874]}, "type": "Feature", "properties": {"FacName": "HUDSON HS OF LEARNING TECHNOLOGIES", "FacAddress": "351 W 18 St", "SchoolDist": 2.0, "FacType": 1005.0}}, {"geometry": {"type": "Point", "coordinates": [-73.98708927326649, 40.73532615125198]}, "type": "Feature", "properties": {"FacName": "INTERNATIONAL HS AT UNION SQUARE", "FacAddress": "40 Irving Pl", "SchoolDist": 2.0, "FacType": 1005.0}}, {"geometry": {"type": "Point", "coordinates": [-73.99196698134463, 40.7419606608834]}, "type": "Feature", "properties": {"FacName": "MANHATTAN VILLAGE ACADEMY", "FacAddress": "43 W 22 St", "SchoolDist": 2.0, "FacType": 1005.0}}, {"geometry": {"type": "Point", "coordinates": [-73.98950637173849, 40.73853501274999]}, "type": "Feature", "properties": {"FacName": "BALLET TECH/NYC PS FOR DANCE", "FacAddress": "890 Broadway", "SchoolDist": 2.0, "FacType": 1001.0}}, {"geometry": {"type": "Point", "coordinates": [-73.95977730839569, 40.765638333792715]}, "type": "Feature", "properties": {"FacName": "VANGUARD HIGH SCHOOL", "FacAddress": "317 E 67 St", "SchoolDist": 2.0, "FacType": 1005.0}}, {"geometry": {"type": "Point", "coordinates": [-73.95977730839569, 40.765638333792715]}, "type": "Feature", "properties": {"FacName": "MANHATTAN INTERNATIONAL HIGH SCHOOL", "FacAddress": "317 E 67 St", "SchoolDist": 2.0, "FacType": 1005.0}}, {"geometry": {"type": "Point", "coordinates": [-73.98708927326649, 40.73532615125198]}, "type": "Feature", "properties": {"FacName": "WASHINGTON IRVING HIGH SCHOOL", "FacAddress": "40 Irving Pl", "SchoolDist": 2.0, "FacType": 1005.0}}, {"geometry": {"type": "Point", "coordinates": [-74.01384169516399, 40.71800937283859]}, "type": "Feature", "properties": {"FacName": "STUYVESANT HIGH SCHOOL", "FacAddress": "345 Chambers St", "SchoolDist": 2.0, "FacType": 1005.0}}, {"geometry": {"type": "Point", "coordinates": [-74.01233578399525, 40.709283947676475]}, "type": "Feature", "properties": {"FacName": "HIGH SCHOOL OF ECONOMICS & FINANCE", "FacAddress": "100 Trinity Pl", "SchoolDist": 2.0, "FacType": 1005.0}}, {"geometry": {"type": "Point", "coordinates": [-73.98107456228261, 40.74651018146511]}, "type": "Feature", "properties": {"FacName": "UNITY CENTER FOR URBAN TECHNOLOGIES", "FacAddress": "111 E 33 St", "SchoolDist": 2.0, "FacType": 1005.0}}, {"geometry": {"type": "Point", "coordinates": [-73.99035434760158, 40.763676971726554]}, "type": "Feature", "properties": {"FacName": "URBAN ASSEMBLY GATEWAY SCHOOL-TECH", "FacAddress": "439 W 49 St", "SchoolDist": 2.0, "FacType": 1005.0}}, {"geometry": {"type": "Point", "coordinates": [-73.95977730839569, 40.765638333792715]}, "type": "Feature", "properties": {"FacName": "TALENT UNLIMITED HIGH SCHOOL", "FacAddress": "317 E 67 St", "SchoolDist": 2.0, "FacType": 1005.0}}, {"geometry": {"type": "Point", "coordinates": [-74.00165564216043, 40.71129101782738]}, "type": "Feature", "properties": {"FacName": "MURRY BERGTRAUM HS FOR BUS CAR", "FacAddress": "411 Pearl St", "SchoolDist": 2.0, "FacType": 1005.0}}, {"geometry": {"type": "Point", "coordinates": [-73.98344650294186, 40.757624026396066]}, "type": "Feature", "properties": {"FacName": "JACQUELINE KENNEDY-ONASSIS HIGH SCH", "FacAddress": "120 W 46 St", "SchoolDist": 2.0, "FacType": 1005.0}}, {"geometry": {"type": "Point", "coordinates": [-73.98438174296098, 40.75608710016163]}, "type": "Feature", "properties": {"FacName": "REPERTORY COMPANY HS FOR THEATRE ART", "FacAddress": "123 W 43 St", "SchoolDist": 2.0, "FacType": 1005.0}}, {"geometry": {"type": "Point", "coordinates": [-73.98708927326649, 40.73532615125198]}, "type": "Feature", "properties": {"FacName": "UNION SQUARE ACAD FOR HEALTH SCIENCE", "FacAddress": "40 Irving Pl", "SchoolDist": 2.0, "FacType": 1005.0}}, {"geometry": {"type": "Point", "coordinates": [-73.99573484403166, 40.73641920736755]}, "type": "Feature", "properties": {"FacName": "HARVEST COLLEGIATE HIGH SCHOOL", "FacAddress": "34 W 14 St", "SchoolDist": 2.0, "FacType": 1005.0}}, {"geometry": {"type": "Point", "coordinates": [-73.99270419558881, 40.76547495042351]}, "type": "Feature", "properties": {"FacName": "MANHATTAN BRIDGES HIGH SCHOOL", "FacAddress": "525 W 50 St", "SchoolDist": 2.0, "FacType": 1005.0}}, {"geometry": {"type": "Point", "coordinates": [-73.9893293413597, 40.71732901039763]}, "type": "Feature", "properties": {"FacName": "NEW DESIGN HIGH SCHOOL", "FacAddress": "350 Grand St", "SchoolDist": 2.0, "FacType": 1005.0}}, {"geometry": {"type": "Point", "coordinates": [-73.98863892960122, 40.76787077988707]}, "type": "Feature", "properties": {"FacName": "INDEPENDENCE HIGH SCHOOL", "FacAddress": "850 10 Ave", "SchoolDist": 2.0, "FacType": 1005.0}}, {"geometry": {"type": "Point", "coordinates": [-73.9893293413597, 40.71732901039763]}, "type": "Feature", "properties": {"FacName": "HS-DUAL LANGUAGE & ASIAN STUDIES", "FacAddress": "350 Grand St", "SchoolDist": 2.0, "FacType": 1005.0}}, {"geometry": {"type": "Point", "coordinates": [-73.98708927326649, 40.73532615125198]}, "type": "Feature", "properties": {"FacName": "ACADEMY FOR SOFTWARE ENGINEERING", "FacAddress": "40 Irving Pl", "SchoolDist": 2.0, "FacType": 1005.0}}, {"geometry": {"type": "Point", "coordinates": [-74.00023817480846, 40.74182095787089]}, "type": "Feature", "properties": {"FacName": "LIBERTY HIGH SCH ACAD-NEWCOMERS", "FacAddress": "250 W 18 St", "SchoolDist": 2.0, "FacType": 1005.0}}, {"geometry": {"type": "Point", "coordinates": [-74.01158762651434, 40.7005501847992]}, "type": "Feature", "properties": {"FacName": "URBAN ASSEMBLY NY HARBOR SCHOOL", "FacAddress": "10 South St", "SchoolDist": 2.0, "FacType": 1005.0}}, {"geometry": {"type": "Point", "coordinates": [-74.00615528879, 40.72904945673158]}, "type": "Feature", "properties": {"FacName": "HS 560 CITY-AS-SCHOOL", "FacAddress": "16 Clarkson St", "SchoolDist": 2.0, "FacType": 1005.0}}, {"geometry": {"type": "Point", "coordinates": [-73.95977730839569, 40.765638333792715]}, "type": "Feature", "properties": {"FacName": "URBAN ACAD LABORATORY HIGH SCHOOL", "FacAddress": "317 E 67 St", "SchoolDist": 2.0, "FacType": 1005.0}}, {"geometry": {"type": "Point", "coordinates": [-73.99056602410162, 40.74741986183183]}, "type": "Feature", "properties": {"FacName": "SATELLITE ACADEMY HIGH SCHOOL", "FacAddress": "120 W 30 St", "SchoolDist": 2.0, "FacType": 1005.0}}, {"geometry": {"type": "Point", "coordinates": [-73.98433310104029, 40.732696334876806]}, "type": "Feature", "properties": {"FacName": "MANHATTAN COMP NIGHT AND DAY HS", "FacAddress": "240 2 Ave", "SchoolDist": 2.0, "FacType": 1005.0}}, {"geometry": {"type": "Point", "coordinates": [-74.0129013294843, 40.7054274922312]}, "type": "Feature", "properties": {"FacName": "RICHARD R GREEN HS OF TEACHING", "FacAddress": "26 Broadway", "SchoolDist": 2.0, "FacType": 1005.0}}, {"geometry": {"type": "Point", "coordinates": [-73.99234009148901, 40.72968614940567]}, "type": "Feature", "properties": {"FacName": "HARVEY MILK HIGH SCHOOL", "FacAddress": "2-10 Astor Pl", "SchoolDist": 2.0, "FacType": 1005.0}}, {"geometry": {"type": "Point", "coordinates": [-73.99635859537901, 40.745674530124994]}, "type": "Feature", "properties": {"FacName": "HIGH SCH OF FASHION INDUSTRIES (THE)", "FacAddress": "225 W 24 St", "SchoolDist": 2.0, "FacType": 1005.0}}, {"geometry": {"type": "Point", "coordinates": [-74.00252615926145, 40.743363480751874]}, "type": "Feature", "properties": {"FacName": "HUMANITIES PREP ACADEMY", "FacAddress": "351 W 18 St", "SchoolDist": 2.0, "FacType": 1005.0}}, {"geometry": {"type": "Point", "coordinates": [-74.00504007641477, 40.724649665949364]}, "type": "Feature", "properties": {"FacName": "CHELSEA CAREER AND TECH ED HS", "FacAddress": "131 Ave Of The Americas", "SchoolDist": 2.0, "FacType": 1005.0}}, {"geometry": {"type": "Point", "coordinates": [-73.98107456228261, 40.74651018146511]}, "type": "Feature", "properties": {"FacName": "NORMAN THOMAS HIGH SCHOOL", "FacAddress": "111 E 33 St", "SchoolDist": 2.0, "FacType": 1005.0}}, {"geometry": {"type": "Point", "coordinates": [-73.99035434760158, 40.763676971726554]}, "type": "Feature", "properties": {"FacName": "HS OF GRAPHIC COMMUNICATION ARTS", "FacAddress": "439 W 49 St", "SchoolDist": 2.0, "FacType": 1005.0}}, {"geometry": {"type": "Point", "coordinates": [-73.9663723805506, 40.75930009146852]}, "type": "Feature", "properties": {"FacName": "ART AND DESIGN HIGH SCHOOL", "FacAddress": "231-249 E 56 St", "SchoolDist": 2.0, "FacType": 1005.0}}, {"geometry": {"type": "Point", "coordinates": [-73.94593304787631, 40.78328408057865]}, "type": "Feature", "properties": {"FacName": "LIFE SCIENCES SECONDARY SCHOOL", "FacAddress": "320 E 96 St", "SchoolDist": 2.0, "FacType": 1004.0}}, {"geometry": {"type": "Point", "coordinates": [-74.01583726151652, 40.70560004643854]}, "type": "Feature", "properties": {"FacName": "JOHN V LINDSAY WILDCAT ACAD CHARTER", "FacAddress": "17 Battery Pl", "SchoolDist": 2.0, "FacType": 1015.0}}, {"geometry": {"type": "Point", "coordinates": [-74.00525650362141, 40.72413364199477]}, "type": "Feature", "properties": {"FacName": "BROOME ST ACADEMY CHARTER HIGH SCHOO", "FacAddress": "121 Ave Of The Americas", "SchoolDist": 2.0, "FacType": 1015.0}}, {"geometry": {"type": "Point", "coordinates": [-73.98708927326649, 40.73532615125198]}, "type": "Feature", "properties": {"FacName": "SUCCESS ACAD CHARTER SCH-UNION SQUAR", "FacAddress": "40 Irving Pl", "SchoolDist": 2.0, "FacType": 1018.0}}, {"geometry": {"type": "Point", "coordinates": [-73.99035434760158, 40.763676971726554]}, "type": "Feature", "properties": {"FacName": "SUCCESS ACAD CHARTER SCH-HELL'S KITC", "FacAddress": "439 W 49 St", "SchoolDist": 2.0, "FacType": 1018.0}}, {"geometry": {"type": "Point", "coordinates": [-73.9965299902129, 40.71158192255129]}, "type": "Feature", "properties": {"FacName": "GREAT OAKS CHARTER SCHOOL", "FacAddress": "1 Monroe St", "SchoolDist": 2.0, "FacType": 1018.0}}, {"geometry": {"type": "Point", "coordinates": [-73.97379455163659, 40.785036690178835]}, "type": "Feature", "properties": {"FacName": "PS 9 SARAH ANDERSON", "FacAddress": "100 W 84 St", "SchoolDist": 3.0, "FacType": 1001.0}}, {"geometry": {"type": "Point", "coordinates": [-73.9632668891432, 40.80071445959611]}, "type": "Feature", "properties": {"FacName": "JHS 54 BOOKER T WASHINGTON", "FacAddress": "103 W 107 St", "SchoolDist": 3.0, "FacType": 1002.0}}, {"geometry": {"type": "Point", "coordinates": [-73.97399644744786, 40.795109900507846]}, "type": "Feature", "properties": {"FacName": "PS 75 EMILY DICKINSON", "FacAddress": "735 W End Ave", "SchoolDist": 3.0, "FacType": 1001.0}}, {"geometry": {"type": "Point", "coordinates": [-73.95145170211131, 40.80653439720293]}, "type": "Feature", "properties": {"FacName": "PS 76 A PHILLIP RANDOLPH", "FacAddress": "220 W 121 St", "SchoolDist": 3.0, "FacType": 1001.0}}, {"geometry": {"type": "Point", "coordinates": [-73.96842280124713, 40.78947906572035]}, "type": "Feature", "properties": {"FacName": "PS 84 LILLIAN WEBER", "FacAddress": "32 W 92 St", "SchoolDist": 3.0, "FacType": 1001.0}}, {"geometry": {"type": "Point", "coordinates": [-73.97805668617819, 40.781741155098395]}, "type": "Feature", "properties": {"FacName": "PS 87 WILLIAM SHERMAN", "FacAddress": "160 W 78 St", "SchoolDist": 3.0, "FacType": 1001.0}}, {"geometry": {"type": "Point", "coordinates": [-73.9656371284259, 40.799112269455186]}, "type": "Feature", "properties": {"FacName": "PS 145 BLOOMINGDALE SCHOOL (THE)", "FacAddress": "150 W 105 St", "SchoolDist": 3.0, "FacType": 1001.0}}, {"geometry": {"type": "Point", "coordinates": [-73.94808814042025, 40.80264640014246]}, "type": "Feature", "properties": {"FacName": "PS 149 SOJOURNER TRUTH", "FacAddress": "41 W 117 St", "SchoolDist": 3.0, "FacType": 1001.0}}, {"geometry": {"type": "Point", "coordinates": [-73.96850677817788, 40.79517440467215]}, "type": "Feature", "properties": {"FacName": "PS 163 ALFRED E SMITH", "FacAddress": "163 W 97 St", "SchoolDist": 3.0, "FacType": 1001.0}}, {"geometry": {"type": "Point", "coordinates": [-73.96594954512764, 40.80265305981645]}, "type": "Feature", "properties": {"FacName": "PS 165 ROBERT E SIMON", "FacAddress": "234 W 109 St", "SchoolDist": 3.0, "FacType": 1001.0}}, {"geometry": {"type": "Point", "coordinates": [-73.97256157821676, 40.78892568975066]}, "type": "Feature", "properties": {"FacName": "PS 166 RICHARD ROGERS SC-ARTS & SCI", "FacAddress": "132 W 89 St", "SchoolDist": 3.0, "FacType": 1001.0}}, {"geometry": {"type": "Point", "coordinates": [-73.95586515487398, 40.80756818735867]}, "type": "Feature", "properties": {"FacName": "PS 180 HUGO NEWMAN", "FacAddress": "370 W 120 St", "SchoolDist": 3.0, "FacType": 1001.0}}, {"geometry": {"type": "Point", "coordinates": [-73.95012846261724, 40.79844786864927]}, "type": "Feature", "properties": {"FacName": "PS 185 EARLY CHLDHD DISCOVERY", "FacAddress": "20 W 112 St", "SchoolDist": 3.0, "FacType": 1001.0}}, {"geometry": {"type": "Point", "coordinates": [-73.98750104143366, 40.771589784222485]}, "type": "Feature", "properties": {"FacName": "PS 191 AMSTERDAM", "FacAddress": "210 W 61 St", "SchoolDist": 3.0, "FacType": 1001.0}}, {"geometry": {"type": "Point", "coordinates": [-73.98443086004305, 40.777586662946796]}, "type": "Feature", "properties": {"FacName": "PS 199 JESSIE ISADOR STRAUS", "FacAddress": "270 W 70 St", "SchoolDist": 3.0, "FacType": 1001.0}}, {"geometry": {"type": "Point", "coordinates": [-73.95012846261724, 40.79844786864927]}, "type": "Feature", "properties": {"FacName": "PS 208 ALAIN L LOCKE", "FacAddress": "21 W 111 St", "SchoolDist": 3.0, "FacType": 1001.0}}, {"geometry": {"type": "Point", "coordinates": [-73.95557654151325, 40.80160378867452]}, "type": "Feature", "properties": {"FacName": "STEM INSTITUTE OF MANHATTAN", "FacAddress": "240 W 113 St", "SchoolDist": 3.0, "FacType": 1001.0}}, {"geometry": {"type": "Point", "coordinates": [-73.9483708566, 40.80604175299233]}, "type": "Feature", "properties": {"FacName": "PS 242 YOUNG DIPLOMATS MAGNET", "FacAddress": "134 W 122 St", "SchoolDist": 3.0, "FacType": 1001.0}}, {"geometry": {"type": "Point", "coordinates": [-73.97379455163659, 40.785036690178835]}, "type": "Feature", "properties": {"FacName": "MS 243 CENTER SCHOOL", "FacAddress": "482 Columbus Ave", "SchoolDist": 3.0, "FacType": 1002.0}}, {"geometry": {"type": "Point", "coordinates": [-73.9771255040929, 40.78050309826514]}, "type": "Feature", "properties": {"FacName": "MS 245 THE COMPUTER SCHOOL", "FacAddress": "100 W 77 St", "SchoolDist": 3.0, "FacType": 1002.0}}, {"geometry": {"type": "Point", "coordinates": [-73.96842280124713, 40.78947906572035]}, "type": "Feature", "properties": {"FacName": "MS 247 DUAL LANG MIDDLE SCHOOL", "FacAddress": "32 W 92 St", "SchoolDist": 3.0, "FacType": 1002.0}}, {"geometry": {"type": "Point", "coordinates": [-73.97399644744786, 40.795109900507846]}, "type": "Feature", "properties": {"FacName": "MS 250 WEST SIDE COLLABORATIVE", "FacAddress": "735 W End Ave", "SchoolDist": 3.0, "FacType": 1002.0}}, {"geometry": {"type": "Point", "coordinates": [-73.97097516827867, 40.79136262221602]}, "type": "Feature", "properties": {"FacName": "MS 256 ACADEMIC & ATHLETIC EXCELLENC", "FacAddress": "154 W 93 St", "SchoolDist": 3.0, "FacType": 1002.0}}, {"geometry": {"type": "Point", "coordinates": [-73.97097516827867, 40.79136262221602]}, "type": "Feature", "properties": {"FacName": "COMMUNITY ACTION SCHOOL-MS 258", "FacAddress": "154 W 93 St", "SchoolDist": 3.0, "FacType": 1002.0}}, {"geometry": {"type": "Point", "coordinates": [-73.97097516827867, 40.79136262221602]}, "type": "Feature", "properties": {"FacName": "PS 333 MANHATTAN SCHOOL FOR CHLDRN", "FacAddress": "154 W 93 St", "SchoolDist": 3.0, "FacType": 1001.0}}, {"geometry": {"type": "Point", "coordinates": [-73.9771255040929, 40.78050309826514]}, "type": "Feature", "properties": {"FacName": "ANDERSON SCHOOL (THE)", "FacAddress": "100 W 77 St", "SchoolDist": 3.0, "FacType": 1001.0}}, {"geometry": {"type": "Point", "coordinates": [-73.9656371284259, 40.799112269455186]}, "type": "Feature", "properties": {"FacName": "WEST PREP ACADEMY", "FacAddress": "150 W 105 St", "SchoolDist": 3.0, "FacType": 1002.0}}, {"geometry": {"type": "Point", "coordinates": [-73.9771255040929, 40.78050309826514]}, "type": "Feature", "properties": {"FacName": "PS 452", "FacAddress": "100 W 77 St", "SchoolDist": 3.0, "FacType": 1001.0}}, {"geometry": {"type": "Point", "coordinates": [-73.96594954512764, 40.80265305981645]}, "type": "Feature", "properties": {"FacName": "MOTT HALL II", "FacAddress": "234 W 109 St", "SchoolDist": 3.0, "FacType": 1002.0}}, {"geometry": {"type": "Point", "coordinates": [-73.98560851578434, 40.77489148420393]}, "type": "Feature", "properties": {"FacName": "MANHATTAN THEATRE LAB HIGH SCHOOL", "FacAddress": "122 Amsterdam Ave", "SchoolDist": 3.0, "FacType": 1005.0}}, {"geometry": {"type": "Point", "coordinates": [-73.98560851578434, 40.77489148420393]}, "type": "Feature", "properties": {"FacName": "HIGH SCH-ARTS IMAGNTN & INQUIRY", "FacAddress": "122 Amsterdam Ave", "SchoolDist": 3.0, "FacType": 1005.0}}, {"geometry": {"type": "Point", "coordinates": [-73.98560851578434, 40.77489148420393]}, "type": "Feature", "properties": {"FacName": "URBAN ASSMBLY SCH-MEDIA STUDIES", "FacAddress": "122 Amsterdam Ave", "SchoolDist": 3.0, "FacType": 1005.0}}, {"geometry": {"type": "Point", "coordinates": [-73.9743394311393, 40.786049619142084]}, "type": "Feature", "properties": {"FacName": "URBAN ASSEMBLY FOR GREEN CAREERS", "FacAddress": "145 W 84 St", "SchoolDist": 3.0, "FacType": 1005.0}}, {"geometry": {"type": "Point", "coordinates": [-73.9743394311393, 40.786049619142084]}, "type": "Feature", "properties": {"FacName": "GLOBAL LEARNING COLLABORATIVE (THE)", "FacAddress": "145 W 84 St", "SchoolDist": 3.0, "FacType": 1005.0}}, {"geometry": {"type": "Point", "coordinates": [-73.9743394311393, 40.786049619142084]}, "type": "Feature", "properties": {"FacName": "INNOVATION DIPLOMA PLUS", "FacAddress": "145 W 84 St", "SchoolDist": 3.0, "FacType": 1005.0}}, {"geometry": {"type": "Point", "coordinates": [-73.95415634941601, 40.8026105470012]}, "type": "Feature", "properties": {"FacName": "WADLEIGH PERF AND VISUAL ARTS", "FacAddress": "215 W 114 St", "SchoolDist": 3.0, "FacType": 1004.0}}, {"geometry": {"type": "Point", "coordinates": [-73.9743394311393, 40.786049619142084]}, "type": "Feature", "properties": {"FacName": "FRANK MCCOURT HIGH SCHOOL", "FacAddress": "145 W 84 St", "SchoolDist": 3.0, "FacType": 1005.0}}, {"geometry": {"type": "Point", "coordinates": [-73.9883420697859, 40.77260542641029]}, "type": "Feature", "properties": {"FacName": "BEACON HIGH SCHOOL", "FacAddress": "227-243 W 61 St", "SchoolDist": 3.0, "FacType": 1005.0}}, {"geometry": {"type": "Point", "coordinates": [-73.98597693192616, 40.77420260001898]}, "type": "Feature", "properties": {"FacName": "FIORELLO H LAGUARDIA HIGH SCHOOL", "FacAddress": "100 Amsterdam Ave", "SchoolDist": 3.0, "FacType": 1005.0}}, {"geometry": {"type": "Point", "coordinates": [-73.98560851578434, 40.77489148420393]}, "type": "Feature", "properties": {"FacName": "HS FOR LAW ADVCY & COMM JUST", "FacAddress": "122 Amsterdam Ave", "SchoolDist": 3.0, "FacType": 1005.0}}, {"geometry": {"type": "Point", "coordinates": [-73.98560851578434, 40.77489148420393]}, "type": "Feature", "properties": {"FacName": "HIGH SCHOOL OF ARTS AND TECHNOLOGY", "FacAddress": "122 Amsterdam Ave", "SchoolDist": 3.0, "FacType": 1005.0}}, {"geometry": {"type": "Point", "coordinates": [-73.96678306335723, 40.7971336568689]}, "type": "Feature", "properties": {"FacName": "EDWARD A REYNOLDS WEST SIDE HS", "FacAddress": "140 W 102 St", "SchoolDist": 3.0, "FacType": 1005.0}}, {"geometry": {"type": "Point", "coordinates": [-73.98560851578434, 40.77489148420393]}, "type": "Feature", "properties": {"FacName": "MANHATTAN/HUNTER SCIENCE HIGH SCHOOL", "FacAddress": "122 Amsterdam Ave", "SchoolDist": 3.0, "FacType": 1005.0}}, {"geometry": {"type": "Point", "coordinates": [-73.98296553353323, 40.77524244950526]}, "type": "Feature", "properties": {"FacName": "SPECIAL MUSIC SCHOOL", "FacAddress": "129 W 67 St", "SchoolDist": 3.0, "FacType": 1001.0}}, {"geometry": {"type": "Point", "coordinates": [-73.95415634941601, 40.8026105470012]}, "type": "Feature", "properties": {"FacName": "FREDERICK DOUGLASS ACADEMY II", "FacAddress": "215 W 114 St", "SchoolDist": 3.0, "FacType": 1004.0}}, {"geometry": {"type": "Point", "coordinates": [-73.95136102972336, 40.80209339303358]}, "type": "Feature", "properties": {"FacName": "SISULU-WALKER CHARTER SCHOOL", "FacAddress": "125 W 115 St", "SchoolDist": 3.0, "FacType": 1011.0}}, {"geometry": {"type": "Point", "coordinates": [-73.95557654151325, 40.80160378867452]}, "type": "Feature", "properties": {"FacName": "OPPORTUNITY CHARTER SCHOOL", "FacAddress": "240 W 113 St", "SchoolDist": 3.0, "FacType": 1014.0}}, {"geometry": {"type": "Point", "coordinates": [-73.95012846261724, 40.79844786864927]}, "type": "Feature", "properties": {"FacName": "HARLEM LINK CHARTER SCHOOL", "FacAddress": "7 W 111 St", "SchoolDist": 3.0, "FacType": 1011.0}}, {"geometry": {"type": "Point", "coordinates": [-73.9483708566, 40.80604175299233]}, "type": "Feature", "properties": {"FacName": "FUTURE LEADERS INST CHARTER SCHOOL", "FacAddress": "134 W 122 St", "SchoolDist": 3.0, "FacType": 1011.0}}, {"geometry": {"type": "Point", "coordinates": [-73.94808814042025, 40.80264640014246]}, "type": "Feature", "properties": {"FacName": "HARLEM SUCCESS ACADEMY CHARTER SCH", "FacAddress": "34 W 118 St", "SchoolDist": 3.0, "FacType": 1011.0}}, {"geometry": {"type": "Point", "coordinates": [-73.95557654151325, 40.80160378867452]}, "type": "Feature", "properties": {"FacName": "HARLEM SUCCESS ACAD CHARTER SCH 4", "FacAddress": "240 W 113 St", "SchoolDist": 3.0, "FacType": 1011.0}}, {"geometry": {"type": "Point", "coordinates": [-73.95423242787105, 40.80753461411428]}, "type": "Feature", "properties": {"FacName": "NY FRENCH-AMERICAN CHARTER SCHOOL", "FacAddress": "311 W 120 St", "SchoolDist": 3.0, "FacType": 1011.0}}, {"geometry": {"type": "Point", "coordinates": [-73.97379455163659, 40.785036690178835]}, "type": "Feature", "properties": {"FacName": "UPPER WEST SUCCESS ACAD CHARTER SCH", "FacAddress": "482 Columbus Ave", "SchoolDist": 3.0, "FacType": 1011.0}}, {"geometry": {"type": "Point", "coordinates": [-73.95303866747388, 40.804836069700244]}, "type": "Feature", "properties": {"FacName": "HARLEM HEBREW LANGUAGE ACADEMY", "FacAddress": "147 St Nicholas Ave", "SchoolDist": 3.0, "FacType": 1018.0}}, {"geometry": {"type": "Point", "coordinates": [-73.93937780937232, 40.80061928531213]}, "type": "Feature", "properties": {"FacName": "PS 7 SAMUEL STERN", "FacAddress": "160 E 120 St", "SchoolDist": 4.0, "FacType": 1001.0}}, {"geometry": {"type": "Point", "coordinates": [-73.94228155231305, 40.79255127243355]}, "type": "Feature", "properties": {"FacName": "TAG YOUNG SCHOLARS", "FacAddress": "240 E 109 St", "SchoolDist": 4.0, "FacType": 1001.0}}, {"geometry": {"type": "Point", "coordinates": [-73.94848881489884, 40.79364661603091]}, "type": "Feature", "properties": {"FacName": "JHS 13 JACKIE ROBINSON", "FacAddress": "1573 Madison Ave", "SchoolDist": 4.0, "FacType": 1002.0}}, {"geometry": {"type": "Point", "coordinates": [-73.93048561238929, 40.79686222255592]}, "type": "Feature", "properties": {"FacName": "RIVER EAST ELEMENTARY", "FacAddress": "508 E 120 St", "SchoolDist": 4.0, "FacType": 1001.0}}, {"geometry": {"type": "Point", "coordinates": [-73.94477666854091, 40.78868791253187]}, "type": "Feature", "properties": {"FacName": "PS 38 ROBERTO CLEMENTE", "FacAddress": "232 E 103 St", "SchoolDist": 4.0, "FacType": 1001.0}}, {"geometry": {"type": "Point", "coordinates": [-73.94094427567288, 40.78557348509433]}, "type": "Feature", "properties": {"FacName": "PS 50 VITO MARCANTONIO", "FacAddress": "433 E 100 St", "SchoolDist": 4.0, "FacType": 1001.0}}, {"geometry": {"type": "Point", "coordinates": [-73.94155519347883, 40.79718126528625]}, "type": "Feature", "properties": {"FacName": "JAMES WELDON JOHNSON SCHOOL", "FacAddress": "176 E 115 St", "SchoolDist": 4.0, "FacType": 1001.0}}, {"geometry": {"type": "Point", "coordinates": [-73.94745043315129, 40.791444873199865]}, "type": "Feature", "properties": {"FacName": "LEXINGTON ACADEMY (THE)", "FacAddress": "131 E 104 St", "SchoolDist": 4.0, "FacType": 1001.0}}, {"geometry": {"type": "Point", "coordinates": [-73.94195944942169, 40.79333335914064]}, "type": "Feature", "properties": {"FacName": "PS 83 LUIS MUNOZ RIVERA", "FacAddress": "219 E 109 St", "SchoolDist": 4.0, "FacType": 1001.0}}, {"geometry": {"type": "Point", "coordinates": [-73.93715371936426, 40.79972605772523]}, "type": "Feature", "properties": {"FacName": "PS 96 JOSEPH LANZETTA", "FacAddress": "216 E 120 St", "SchoolDist": 4.0, "FacType": 1001.0}}, {"geometry": {"type": "Point", "coordinates": [-73.93842224281893, 40.79499757423447]}, "type": "Feature", "properties": {"FacName": "PS 102 JACQUES CARTIER", "FacAddress": "315 E 113 St", "SchoolDist": 4.0, "FacType": 1001.0}}, {"geometry": {"type": "Point", "coordinates": [-73.94785571253101, 40.79503241987227]}, "type": "Feature", "properties": {"FacName": "PS 108 ASSEMBLYMAN ANGELO DEL TORO", "FacAddress": "1615 Madison Ave", "SchoolDist": 4.0, "FacType": 1001.0}}, {"geometry": {"type": "Point", "coordinates": [-73.93048561238929, 40.79686222255592]}, "type": "Feature", "properties": {"FacName": "PS 112 JOSE CELSO BARBOSA", "FacAddress": "535 E 119 St", "SchoolDist": 4.0, "FacType": 1001.0}}, {"geometry": {"type": "Point", "coordinates": [-73.93870176817111, 40.789519240379335]}, "type": "Feature", "properties": {"FacName": "PS 146 ANN M SHORT", "FacAddress": "421 E 106 St", "SchoolDist": 4.0, "FacType": 1001.0}}, {"geometry": {"type": "Point", "coordinates": [-73.93583035474413, 40.797458183088416]}, "type": "Feature", "properties": {"FacName": "PS 155 WILLIAM PACA", "FacAddress": "319 E 117 St", "SchoolDist": 4.0, "FacType": 1001.0}}, {"geometry": {"type": "Point", "coordinates": [-73.9514259676839, 40.79230022861555]}, "type": "Feature", "properties": {"FacName": "PS 171 PATRICK HENRY", "FacAddress": "19 E 103 St", "SchoolDist": 4.0, "FacType": 1001.0}}, {"geometry": {"type": "Point", "coordinates": [-73.94195944942169, 40.79333335914064]}, "type": "Feature", "properties": {"FacName": "BILINGUAL BICULTURAL SCHOOL (THE)", "FacAddress": "219 E 109 St", "SchoolDist": 4.0, "FacType": 1001.0}}, {"geometry": {"type": "Point", "coordinates": [-73.93048561238929, 40.79686222255592]}, "type": "Feature", "properties": {"FacName": "PS 206 JOSE CELSO BARBOSA", "FacAddress": "508 E 120 St", "SchoolDist": 4.0, "FacType": 1001.0}}, {"geometry": {"type": "Point", "coordinates": [-73.94223380002889, 40.78515144960538]}, "type": "Feature", "properties": {"FacName": "MS 224 MANHATTAN EAST", "FacAddress": "410 E 100 St", "SchoolDist": 4.0, "FacType": 1002.0}}, {"geometry": {"type": "Point", "coordinates": [-73.94228155231305, 40.79255127243355]}, "type": "Feature", "properties": {"FacName": "ESPERANZA PREPATORY ACADEMY", "FacAddress": "240 E 109 St", "SchoolDist": 4.0, "FacType": 1003.0}}, {"geometry": {"type": "Point", "coordinates": [-73.94484632015656, 40.79615361393798]}, "type": "Feature", "properties": {"FacName": "MOSAIC PREPARATORY ACADEMY", "FacAddress": "141 E 111 St", "SchoolDist": 4.0, "FacType": 1001.0}}, {"geometry": {"type": "Point", "coordinates": [-73.93583035474413, 40.797458183088416]}, "type": "Feature", "properties": {"FacName": "RENAISSANCE SCHOOL OF THE ARTS", "FacAddress": "319 E 117 St", "SchoolDist": 4.0, "FacType": 1002.0}}, {"geometry": {"type": "Point", "coordinates": [-73.93937780937232, 40.80061928531213]}, "type": "Feature", "properties": {"FacName": "GLOBAL TECHNOLOGY PREPARATORY", "FacAddress": "160 E 120 St", "SchoolDist": 4.0, "FacType": 1002.0}}, {"geometry": {"type": "Point", "coordinates": [-73.94848881489884, 40.79364661603091]}, "type": "Feature", "properties": {"FacName": "CENTRAL PARK EAST I", "FacAddress": "1573 Madison Ave", "SchoolDist": 4.0, "FacType": 1001.0}}, {"geometry": {"type": "Point", "coordinates": [-73.93294075633041, 40.794083265107716]}, "type": "Feature", "properties": {"FacName": "ISAAC NEWTON MS FOR MATH & SCI", "FacAddress": "260 Pleasant Ave", "SchoolDist": 4.0, "FacType": 1002.0}}, {"geometry": {"type": "Point", "coordinates": [-73.9514259676839, 40.79230022861555]}, "type": "Feature", "properties": {"FacName": "CENTRAL PARK EAST II", "FacAddress": "19 E 103 St", "SchoolDist": 4.0, "FacType": 1001.0}}, {"geometry": {"type": "Point", "coordinates": [-73.94228155231305, 40.79255127243355]}, "type": "Feature", "properties": {"FacName": "GLOBAL NEIGHBORHOOD SECONDARY SCHOOL", "FacAddress": "240 E 109 St", "SchoolDist": 4.0, "FacType": 1002.0}}, {"geometry": {"type": "Point", "coordinates": [-73.93374097341821, 40.79926577701575]}, "type": "Feature", "properties": {"FacName": "COALITION SCHOOL FOR SOCIAL CHANGE", "FacAddress": "2351 1 Ave", "SchoolDist": 4.0, "FacType": 1005.0}}, {"geometry": {"type": "Point", "coordinates": [-73.93294075633041, 40.794083265107716]}, "type": "Feature", "properties": {"FacName": "MANHATTAN CENTER-SCIENCE & MATH", "FacAddress": "260 Pleasant Ave", "SchoolDist": 4.0, "FacType": 1005.0}}, {"geometry": {"type": "Point", "coordinates": [-73.94409287842342, 40.79019169662401]}, "type": "Feature", "properties": {"FacName": "PARK EAST HIGH SCHOOL", "FacAddress": "230 E 105 St", "SchoolDist": 4.0, "FacType": 1005.0}}, {"geometry": {"type": "Point", "coordinates": [-73.94848881489884, 40.79364661603091]}, "type": "Feature", "properties": {"FacName": "CENTRAL PARK EAST HIGH SCHOOL", "FacAddress": "1573 Madison Ave", "SchoolDist": 4.0, "FacType": 1005.0}}, {"geometry": {"type": "Point", "coordinates": [-73.94717117505054, 40.7929323902693]}, "type": "Feature", "properties": {"FacName": "YOUNG WOMEN'S LEADERSHIP SCHOOL", "FacAddress": "105 E 106 St", "SchoolDist": 4.0, "FacType": 1004.0}}, {"geometry": {"type": "Point", "coordinates": [-73.94223380002889, 40.78515144960538]}, "type": "Feature", "properties": {"FacName": "ACADEMY OF ENVIRONMENTAL SCIENCE", "FacAddress": "410 E 100 St", "SchoolDist": 4.0, "FacType": 1005.0}}, {"geometry": {"type": "Point", "coordinates": [-73.94686855664392, 40.791996298067545]}, "type": "Feature", "properties": {"FacName": "HERITAGE SCHOOL (THE)", "FacAddress": "1680 Lexington Ave", "SchoolDist": 4.0, "FacType": 1005.0}}, {"geometry": {"type": "Point", "coordinates": [-73.94390807736754, 40.790929939052624]}, "type": "Feature", "properties": {"FacName": "AMBER CHARTER SCHOOL", "FacAddress": "220 E 106 St", "SchoolDist": 4.0, "FacType": 1011.0}}, {"geometry": {"type": "Point", "coordinates": [-73.94445327629776, 40.79540136906603]}, "type": "Feature", "properties": {"FacName": "HARBOR SCI & ARTS CHARTER SCHOOL", "FacAddress": "132 E 111 St", "SchoolDist": 4.0, "FacType": 1011.0}}, {"geometry": {"type": "Point", "coordinates": [-73.93537132194574, 40.80153110280723]}, "type": "Feature", "properties": {"FacName": "HARLEM PREP CHARTER SCHOOL", "FacAddress": "240 E 123 St", "SchoolDist": 4.0, "FacType": 1011.0}}, {"geometry": {"type": "Point", "coordinates": [-73.94546252970947, 40.80666072125555]}, "type": "Feature", "properties": {"FacName": "HARLEM VILLAGE ACADEMY LEADERSHIP", "FacAddress": "74 W 124 St", "SchoolDist": 5.0, "FacType": 1014.0}}, {"geometry": {"type": "Point", "coordinates": [-73.94477666854091, 40.78868791253187]}, "type": "Feature", "properties": {"FacName": "DREAM CHARTER SCHOOL", "FacAddress": "232 E 103 St", "SchoolDist": 4.0, "FacType": 1011.0}}, {"geometry": {"type": "Point", "coordinates": [-73.94484632015656, 40.79615361393798]}, "type": "Feature", "properties": {"FacName": "HARLEM SUCCESS ACAD CHARTER SCH 3", "FacAddress": "141 E 111 St", "SchoolDist": 4.0, "FacType": 1011.0}}, {"geometry": {"type": "Point", "coordinates": [-73.88482099322798, 40.749934489774716]}, "type": "Feature", "properties": {"FacName": "RENAISSANCE CHARTER HS-INNOVATION", "FacAddress": "35-59 81 St", "SchoolDist": 30.0, "FacType": 1015.0}}, {"geometry": {"type": "Point", "coordinates": [-73.94848881489884, 40.79364661603091]}, "type": "Feature", "properties": {"FacName": "EAST HARLEM SCHOLARS ACAD CHARTER", "FacAddress": "1573 Madison Ave", "SchoolDist": 4.0, "FacType": 1011.0}}, {"geometry": {"type": "Point", "coordinates": [-73.94848881489884, 40.79364661603091]}, "type": "Feature", "properties": {"FacName": "EAST HARLEM SCHOLARS ACADEMY CS II", "FacAddress": "1573 Madison Ave", "SchoolDist": 4.0, "FacType": 1018.0}}, {"geometry": {"type": "Point", "coordinates": [-73.94094427567288, 40.78557348509433]}, "type": "Feature", "properties": {"FacName": "NY CENTER FOR AUTISM CHARTER SCHOOL", "FacAddress": "433 E 100 St", "SchoolDist": 4.0, "FacType": 1018.0}}, {"geometry": {"type": "Point", "coordinates": [-73.93546123543214, 40.8056537316714]}, "type": "Feature", "properties": {"FacName": "PS 30 HERNANDEZ/HUGHES", "FacAddress": "144-176 E 128 St", "SchoolDist": 5.0, "FacType": 1001.0}}, {"geometry": {"type": "Point", "coordinates": [-73.95740920897315, 40.810697752688995]}, "type": "Feature", "properties": {"FacName": "PS 36 MARGARET DOUGLAS", "FacAddress": "123 Morningside Dr", "SchoolDist": 5.0, "FacType": 1001.0}}, {"geometry": {"type": "Point", "coordinates": [-73.93629261837495, 40.831462790529166]}, "type": "Feature", "properties": {"FacName": "PS 46 ARTHUR TAPPAN", "FacAddress": "2987 Frederick Douglas Blvd", "SchoolDist": 5.0, "FacType": 1001.0}}, {"geometry": {"type": "Point", "coordinates": [-73.94585676280357, 40.81492801247814]}, "type": "Feature", "properties": {"FacName": "PS 92 MARY MCLEOD BETHUNE", "FacAddress": "222 W 134 St", "SchoolDist": 5.0, "FacType": 1001.0}}, {"geometry": {"type": "Point", "coordinates": [-73.94452652742746, 40.82018351778861]}, "type": "Feature", "properties": {"FacName": "PS 123 MAHALIA JACKSON", "FacAddress": "301 W 140 St", "SchoolDist": 5.0, "FacType": 1001.0}}, {"geometry": {"type": "Point", "coordinates": [-73.95572574507307, 40.81079043887138]}, "type": "Feature", "properties": {"FacName": "PS 125 RALPH BUNCHE", "FacAddress": "425 W 123 St", "SchoolDist": 5.0, "FacType": 1001.0}}, {"geometry": {"type": "Point", "coordinates": [-73.95205612208377, 40.814928012280504]}, "type": "Feature", "properties": {"FacName": "PS 129 JOHN H FINLEY", "FacAddress": "425 W 130 St", "SchoolDist": 5.0, "FacType": 1001.0}}, {"geometry": {"type": "Point", "coordinates": [-73.93917811429509, 40.80966305007858]}, "type": "Feature", "properties": {"FacName": "PS 133 FRED R MOORE", "FacAddress": "2121 5 Ave", "SchoolDist": 5.0, "FacType": 1001.0}}, {"geometry": {"type": "Point", "coordinates": [-73.94892731643728, 40.810513155953444]}, "type": "Feature", "properties": {"FacName": "PS 154 HARRIET TUBMAN", "FacAddress": "250 W 127 St", "SchoolDist": 5.0, "FacType": 1001.0}}, {"geometry": {"type": "Point", "coordinates": [-73.95248042547034, 40.81771956812523]}, "type": "Feature", "properties": {"FacName": "PS 161 PEDRO ALBIZU CAMPOS", "FacAddress": "499 W 133 St", "SchoolDist": 5.0, "FacType": 1001.0}}, {"geometry": {"type": "Point", "coordinates": [-73.94258420296823, 40.81431435588343]}, "type": "Feature", "properties": {"FacName": "PS 175 HENRY H GARNET", "FacAddress": "175 W 134 St", "SchoolDist": 5.0, "FacType": 1001.0}}, {"geometry": {"type": "Point", "coordinates": [-73.94111498398216, 40.821205606658054]}, "type": "Feature", "properties": {"FacName": "PS 194 COUNTEE CULLEN", "FacAddress": "244 W 144 St", "SchoolDist": 5.0, "FacType": 1001.0}}, {"geometry": {"type": "Point", "coordinates": [-73.93835090441158, 40.813532669818876]}, "type": "Feature", "properties": {"FacName": "PS 197 JOHN B RUSSWURM", "FacAddress": "2230 5 Ave", "SchoolDist": 5.0, "FacType": 1001.0}}, {"geometry": {"type": "Point", "coordinates": [-73.93568195877135, 40.823950166435885]}, "type": "Feature", "properties": {"FacName": "PS 200 JAMES MCCUNE SMITH SCH (THE)", "FacAddress": "2589 7 Ave", "SchoolDist": 5.0, "FacType": 1001.0}}, {"geometry": {"type": "Point", "coordinates": [-73.95555628804762, 40.815708914582814]}, "type": "Feature", "properties": {"FacName": "IS 286 RENAISSANCE LEADERSHIP", "FacAddress": "509 W 129 St", "SchoolDist": 5.0, "FacType": 1002.0}}, {"geometry": {"type": "Point", "coordinates": [-73.94715550076857, 40.81722869058407]}, "type": "Feature", "properties": {"FacName": "KAPPA IV", "FacAddress": "6 Edgecombe Ave", "SchoolDist": 5.0, "FacType": 1002.0}}, {"geometry": {"type": "Point", "coordinates": [-73.93783365392335, 40.82582873246012]}, "type": "Feature", "properties": {"FacName": "THURGOOD MARSHALL ACADEMY LOWER SCH", "FacAddress": "276 W 151 St", "SchoolDist": 5.0, "FacType": 1001.0}}, {"geometry": {"type": "Point", "coordinates": [-73.95555628804762, 40.815708914582814]}, "type": "Feature", "properties": {"FacName": "URBAN ASSEMBLY INST-NEW TECHNOLOGIES", "FacAddress": "509 W 129 St", "SchoolDist": 5.0, "FacType": 1002.0}}, {"geometry": {"type": "Point", "coordinates": [-73.95683613385027, 40.819826479793385]}, "type": "Feature", "properties": {"FacName": "NEW DESIGN MIDDLE SCHOOL", "FacAddress": "625 W 133 St", "SchoolDist": 5.0, "FacType": 1003.0}}, {"geometry": {"type": "Point", "coordinates": [-73.95363644663136, 40.81265602944441]}, "type": "Feature", "properties": {"FacName": "TEACHERS COLLEGE COMMUNITY SCHOOL", "FacAddress": "168 Morningside Ave", "SchoolDist": 5.0, "FacType": 1001.0}}, {"geometry": {"type": "Point", "coordinates": [-73.94715550076857, 40.81722869058407]}, "type": "Feature", "properties": {"FacName": "EAGLE ACADEMY FOR YOUNG MEN-HARLEM", "FacAddress": "6 Edgecombe Ave", "SchoolDist": 5.0, "FacType": 1008.0}}, {"geometry": {"type": "Point", "coordinates": [-73.93871455284173, 40.807016890586496]}, "type": "Feature", "properties": {"FacName": "URBAN ASSEMBLY-GLOBAL COMMERCE", "FacAddress": "2005 Madison Ave", "SchoolDist": 5.0, "FacType": 1008.0}}, {"geometry": {"type": "Point", "coordinates": [-73.93998908288226, 40.80767629541717]}, "type": "Feature", "properties": {"FacName": "HARLEM RENAISSANCE HIGH SCHOOL", "FacAddress": "22 E 128 St", "SchoolDist": 5.0, "FacType": 1005.0}}, {"geometry": {"type": "Point", "coordinates": [-73.94715550076857, 40.81722869058407]}, "type": "Feature", "properties": {"FacName": "MOTT HALL HIGH SCHOOL", "FacAddress": "6 Edgecombe Ave", "SchoolDist": 5.0, "FacType": 1005.0}}, {"geometry": {"type": "Point", "coordinates": [-73.95572574507307, 40.81079043887138]}, "type": "Feature", "properties": {"FacName": "COLUMBIA SECONDARY SCHOOL", "FacAddress": "425 W 123 St", "SchoolDist": 5.0, "FacType": 1004.0}}, {"geometry": {"type": "Point", "coordinates": [-73.95555628804762, 40.815708914582814]}, "type": "Feature", "properties": {"FacName": "ACADEMY FOR SOCIAL ACTION", "FacAddress": "509 W 129 St", "SchoolDist": 5.0, "FacType": 1004.0}}, {"geometry": {"type": "Point", "coordinates": [-73.95555628804762, 40.815708914582814]}, "type": "Feature", "properties": {"FacName": "URBAN ASSEMBLY FOR THE PERFORM ARTS", "FacAddress": "509 W 129 St", "SchoolDist": 5.0, "FacType": 1005.0}}, {"geometry": {"type": "Point", "coordinates": [-73.93871455284173, 40.807016890586496]}, "type": "Feature", "properties": {"FacName": "CHOIR ACADEMY OF HARLEM", "FacAddress": "2005 Madison Ave", "SchoolDist": 5.0, "FacType": 1004.0}}, {"geometry": {"type": "Point", "coordinates": [-73.93568195877135, 40.823950166435885]}, "type": "Feature", "properties": {"FacName": "FREDERICK DOUGLASS ACADEMY", "FacAddress": "2581 7 Ave", "SchoolDist": 5.0, "FacType": 1004.0}}, {"geometry": {"type": "Point", "coordinates": [-73.9443030484324, 40.81524016994389]}, "type": "Feature", "properties": {"FacName": "THURGOOD MARSHALL ACAD FOR LEARNING", "FacAddress": "200-214 W 135 St", "SchoolDist": 5.0, "FacType": 1004.0}}, {"geometry": {"type": "Point", "coordinates": [-73.94715550076857, 40.81722869058407]}, "type": "Feature", "properties": {"FacName": "BREAD & ROSES INTEGRATED ARTS HS", "FacAddress": "6 Edgecombe Ave", "SchoolDist": 5.0, "FacType": 1005.0}}, {"geometry": {"type": "Point", "coordinates": [-73.95035422121158, 40.82021087659962]}, "type": "Feature", "properties": {"FacName": "HS MATH SCI & ENGNRNG AT CCNY", "FacAddress": "240 Convent Ave", "SchoolDist": 6.0, "FacType": 1005.0}}, {"geometry": {"type": "Point", "coordinates": [-73.99055848399267, 40.74969251273181]}, "type": "Feature", "properties": {"FacName": "HARLEM VILLAGE ACAD CHARTER", "FacAddress": "15 Penn Plaza #15", "SchoolDist": 2.0, "FacType": 1014.0}}, {"geometry": {"type": "Point", "coordinates": [-73.95572574507307, 40.81079043887138]}, "type": "Feature", "properties": {"FacName": "KIPP STAR COLLEGE PREP CHARTER", "FacAddress": "433 W 123 St", "SchoolDist": 5.0, "FacType": 1014.0}}, {"geometry": {"type": "Point", "coordinates": [-73.94816711719497, 40.81254940019486]}, "type": "Feature", "properties": {"FacName": "HARLEM CHILDREN'S ZONE PROMISE", "FacAddress": "245 W 129 St", "SchoolDist": 5.0, "FacType": 1014.0}}, {"geometry": {"type": "Point", "coordinates": [-73.95683613385027, 40.819826479793385]}, "type": "Feature", "properties": {"FacName": "KIPP INFINITY CHARTER SCHOOL", "FacAddress": "625 W 133 St", "SchoolDist": 5.0, "FacType": 1014.0}}, {"geometry": {"type": "Point", "coordinates": [-73.94101266993324, 40.806197416531816]}, "type": "Feature", "properties": {"FacName": "HARLEM CHLDRN ZONE ACADEMY II", "FacAddress": "35 E 125 St", "SchoolDist": 5.0, "FacType": 1011.0}}, {"geometry": {"type": "Point", "coordinates": [-73.94585676280357, 40.81492801247814]}, "type": "Feature", "properties": {"FacName": "DEMOCRACY PREP CHARTER SCHOOL", "FacAddress": "222 W 134 St", "SchoolDist": 5.0, "FacType": 1014.0}}, {"geometry": {"type": "Point", "coordinates": [-73.93546123543214, 40.8056537316714]}, "type": "Feature", "properties": {"FacName": "HARLEM SUCCESS ACAD CHARTER SCH 2", "FacAddress": "144 E 128 St", "SchoolDist": 5.0, "FacType": 1011.0}}, {"geometry": {"type": "Point", "coordinates": [-73.94585676280357, 40.81492801247814]}, "type": "Feature", "properties": {"FacName": "ST HOPE LEADERSHIP ACAD CHARTER SCH", "FacAddress": "222 W 134 St", "SchoolDist": 5.0, "FacType": 1012.0}}, {"geometry": {"type": "Point", "coordinates": [-73.94452652742746, 40.82018351778861]}, "type": "Feature", "properties": {"FacName": "HARLEM SUCCESS ACAD CHARTER SCHOOL 5", "FacAddress": "301 W 140 St", "SchoolDist": 5.0, "FacType": 1011.0}}, {"geometry": {"type": "Point", "coordinates": [-73.9450080705459, 40.81457903104751]}, "type": "Feature", "properties": {"FacName": "DEMOCRACY PREP HARLEM CHARTER SCHOOL", "FacAddress": "207 W 133 St", "SchoolDist": 5.0, "FacType": 1012.0}}, {"geometry": {"type": "Point", "coordinates": [-73.94892731643728, 40.810513155953444]}, "type": "Feature", "properties": {"FacName": "DEMOCRACY PREP ENDURANCE CHARTER", "FacAddress": "250 W 127 St", "SchoolDist": 5.0, "FacType": 1013.0}}, {"geometry": {"type": "Point", "coordinates": [-73.94742334395818, 40.80745485773754]}, "type": "Feature", "properties": {"FacName": "NEIGHBORHOOD CHARTER SCHOOL OF HARLE", "FacAddress": "132 W 124 St", "SchoolDist": 5.0, "FacType": 1011.0}}, {"geometry": {"type": "Point", "coordinates": [-73.94159797069996, 40.83487453270553]}, "type": "Feature", "properties": {"FacName": "PS 4 DUKE ELLINGTON", "FacAddress": "500 W 160 St", "SchoolDist": 6.0, "FacType": 1001.0}}, {"geometry": {"type": "Point", "coordinates": [-73.92226295757258, 40.85770182798976]}, "type": "Feature", "properties": {"FacName": "PS 5 ELLEN LURIE", "FacAddress": "3703 10 Ave", "SchoolDist": 6.0, "FacType": 1001.0}}, {"geometry": {"type": "Point", "coordinates": [-73.9366428723112, 40.83932932774693]}, "type": "Feature", "properties": {"FacName": "PS 8 LUIS BELLIARD", "FacAddress": "465 W 167 St", "SchoolDist": 6.0, "FacType": 1001.0}}, {"geometry": {"type": "Point", "coordinates": [-73.91173227205384, 40.87145342483739]}, "type": "Feature", "properties": {"FacName": "PS 18 PARK TERRACE", "FacAddress": "4124 9 Ave", "SchoolDist": 6.0, "FacType": 1001.0}}, {"geometry": {"type": "Point", "coordinates": [-73.94198388047401, 40.83160577499547]}, "type": "Feature", "properties": {"FacName": "PS 28 WRIGHT BROTHERS", "FacAddress": "475 W 155 St", "SchoolDist": 6.0, "FacType": 1001.0}}, {"geometry": {"type": "Point", "coordinates": [-73.93361853828469, 40.85322682154146]}, "type": "Feature", "properties": {"FacName": "PS 48 PO MICHAEL J BUCZEK", "FacAddress": "4360-78 Broadway", "SchoolDist": 6.0, "FacType": 1001.0}}, {"geometry": {"type": "Point", "coordinates": [-73.9250194454996, 40.86567700373243]}, "type": "Feature", "properties": {"FacName": "JHS 52 INWOOD", "FacAddress": "650 Academy St", "SchoolDist": 6.0, "FacType": 1002.0}}, {"geometry": {"type": "Point", "coordinates": [-73.91781855526644, 40.86774160185389]}, "type": "Feature", "properties": {"FacName": "PS 98 SHORAC KAPPOCK", "FacAddress": "512 W 212 St", "SchoolDist": 6.0, "FacType": 1001.0}}, {"geometry": {"type": "Point", "coordinates": [-73.93396820147915, 40.85056191455477]}, "type": "Feature", "properties": {"FacName": "DOS PUENTES ELEMENTARY SCHOOL", "FacAddress": "185 Wadsworth Ave", "SchoolDist": 6.0, "FacType": 1008.0}}, {"geometry": {"type": "Point", "coordinates": [-73.93514367205131, 40.846116158108266]}, "type": "Feature", "properties": {"FacName": "PS 115 ALEXANDER HUMBOLDT", "FacAddress": "586 W 177 St", "SchoolDist": 6.0, "FacType": 1001.0}}, {"geometry": {"type": "Point", "coordinates": [-73.9387482452006, 40.84105963210853]}, "type": "Feature", "properties": {"FacName": "PS 128 AUDUBON", "FacAddress": "560 W 169 St", "SchoolDist": 6.0, "FacType": 1001.0}}, {"geometry": {"type": "Point", "coordinates": [-73.93396820147915, 40.85056191455477]}, "type": "Feature", "properties": {"FacName": "PS 132 JUAN PABLO DUARTE", "FacAddress": "185 Wadsworth Ave", "SchoolDist": 6.0, "FacType": 1001.0}}, {"geometry": {"type": "Point", "coordinates": [-73.93092243463575, 40.849256395985115]}, "type": "Feature", "properties": {"FacName": "JHS 143 ELEANOR ROOSEVELT", "FacAddress": "511 W 182 St", "SchoolDist": 6.0, "FacType": 1002.0}}, {"geometry": {"type": "Point", "coordinates": [-73.92756734457751, 40.8599422112856]}, "type": "Feature", "properties": {"FacName": "PS 152 DYCKMAN VALLEY", "FacAddress": "93 Nagle Ave", "SchoolDist": 6.0, "FacType": 1001.0}}, {"geometry": {"type": "Point", "coordinates": [-73.94759979036651, 40.82651427279265]}, "type": "Feature", "properties": {"FacName": "PS 153 ADAM CLAYTON POWELL", "FacAddress": "1750 Amsterdam Ave", "SchoolDist": 6.0, "FacType": 1001.0}}, {"geometry": {"type": "Point", "coordinates": [-73.93981401941534, 40.84547917223832]}, "type": "Feature", "properties": {"FacName": "PS 173", "FacAddress": "306 Ft Washington Ave", "SchoolDist": 6.0, "FacType": 1001.0}}, {"geometry": {"type": "Point", "coordinates": [-73.92830558998747, 40.8592372839881]}, "type": "Feature", "properties": {"FacName": "PROFESSOR JUAN BOSCH PS", "FacAddress": "12-18 Ellwood St", "SchoolDist": 6.0, "FacType": 1001.0}}, {"geometry": {"type": "Point", "coordinates": [-73.93684726062696, 40.85625329575714]}, "type": "Feature", "properties": {"FacName": "PS/IS 187 HUDSON CLIFFS", "FacAddress": "349 Cabrini Blvd", "SchoolDist": 6.0, "FacType": 1001.0}}, {"geometry": {"type": "Point", "coordinates": [-73.9280520059455, 40.85304233327133]}, "type": "Feature", "properties": {"FacName": "PS 189", "FacAddress": "2580 Amsterdam Ave", "SchoolDist": 6.0, "FacType": 1001.0}}, {"geometry": {"type": "Point", "coordinates": [-73.95305983779114, 40.82091465802209]}, "type": "Feature", "properties": {"FacName": "PS 192 JACOB H SCHIFF", "FacAddress": "500 W 138 St", "SchoolDist": 6.0, "FacType": 1001.0}}, {"geometry": {"type": "Point", "coordinates": [-73.94463398400701, 40.82999044097186]}, "type": "Feature", "properties": {"FacName": "PS/IS 210 21ST CENTURY ACADEMY", "FacAddress": "501-503 W 152 St", "SchoolDist": 6.0, "FacType": 1001.0}}, {"geometry": {"type": "Point", "coordinates": [-73.93004992125974, 40.86090713268388]}, "type": "Feature", "properties": {"FacName": "IS 218 SALOME URENA", "FacAddress": "4600 Broadway", "SchoolDist": 6.0, "FacType": 1002.0}}, {"geometry": {"type": "Point", "coordinates": [-73.95115547370516, 40.81641527245609]}, "type": "Feature", "properties": {"FacName": "MOTT HALL SCHOOL (THE)", "FacAddress": "71-111 Convent Ave", "SchoolDist": 5.0, "FacType": 1002.0}}, {"geometry": {"type": "Point", "coordinates": [-73.91235744930279, 40.87171739243817]}, "type": "Feature", "properties": {"FacName": "PAULA HEDBAVNY SCHOOL", "FacAddress": "421 W 219 St", "SchoolDist": 6.0, "FacType": 1001.0}}, {"geometry": {"type": "Point", "coordinates": [-73.9238219283174, 40.866381606972716]}, "type": "Feature", "properties": {"FacName": "AMISTAD DUAL LANGUAGE SCHOOL", "FacAddress": "4862 Broadway", "SchoolDist": 6.0, "FacType": 1001.0}}, {"geometry": {"type": "Point", "coordinates": [-73.9238219283174, 40.866381606972716]}, "type": "Feature", "properties": {"FacName": "MUSCOTA", "FacAddress": "4862 Broadway", "SchoolDist": 6.0, "FacType": 1001.0}}, {"geometry": {"type": "Point", "coordinates": [-73.93572863864684, 40.83921628904922]}, "type": "Feature", "properties": {"FacName": "MS 319 MARIE TERESA", "FacAddress": "21 Jumel Pl", "SchoolDist": 6.0, "FacType": 1002.0}}, {"geometry": {"type": "Point", "coordinates": [-73.93004992125974, 40.86090713268388]}, "type": "Feature", "properties": {"FacName": "MIDDLE SCHOOL 322", "FacAddress": "4600 Broadway", "SchoolDist": 6.0, "FacType": 1002.0}}, {"geometry": {"type": "Point", "coordinates": [-73.93572863864684, 40.83921628904922]}, "type": "Feature", "properties": {"FacName": "MS 324 PATRIA MIRABAL", "FacAddress": "21 Jumel Pl", "SchoolDist": 6.0, "FacType": 1002.0}}, {"geometry": {"type": "Point", "coordinates": [-73.95305983779114, 40.82091465802209]}, "type": "Feature", "properties": {"FacName": "PS 325", "FacAddress": "500 W 138 St", "SchoolDist": 6.0, "FacType": 1001.0}}, {"geometry": {"type": "Point", "coordinates": [-73.93725945835828, 40.83699117168901]}, "type": "Feature", "properties": {"FacName": "MS 326 WRITERS TODAY & LDRS TOMORROW", "FacAddress": "401 W 164 St", "SchoolDist": 6.0, "FacType": 1002.0}}, {"geometry": {"type": "Point", "coordinates": [-73.93725945835828, 40.83699117168901]}, "type": "Feature", "properties": {"FacName": "MS 328 MANH MIDDLE SCH-SCIENCE", "FacAddress": "401 W 164 St", "SchoolDist": 6.0, "FacType": 1002.0}}, {"geometry": {"type": "Point", "coordinates": [-73.93981401941534, 40.84547917223832]}, "type": "Feature", "properties": {"FacName": "HARBOR HEIGHTS", "FacAddress": "306 Fort Washington Ave", "SchoolDist": 6.0, "FacType": 1002.0}}, {"geometry": {"type": "Point", "coordinates": [-73.92162471302075, 40.86553751322681]}, "type": "Feature", "properties": {"FacName": "WASHINGTON HEIGHTS ACADEMY", "FacAddress": "202 Sherman Ave", "SchoolDist": 6.0, "FacType": 1001.0}}, {"geometry": {"type": "Point", "coordinates": [-73.94759979036651, 40.82651427279265]}, "type": "Feature", "properties": {"FacName": "HAMILTON HEIGHTS SCHOOL", "FacAddress": "1750 Amsterdam Ave", "SchoolDist": 6.0, "FacType": 1001.0}}, {"geometry": {"type": "Point", "coordinates": [-73.9387482452006, 40.84105963210853]}, "type": "Feature", "properties": {"FacName": "CASTLE BRIDGE SCHOOL", "FacAddress": "560 W 169 St", "SchoolDist": 6.0, "FacType": 1001.0}}, {"geometry": {"type": "Point", "coordinates": [-73.93467654705243, 40.850683084594266]}, "type": "Feature", "properties": {"FacName": "IS 528 BEA FULLER RODGERS SCHOOL", "FacAddress": "180 Wadsworth Ave", "SchoolDist": 6.0, "FacType": 1002.0}}, {"geometry": {"type": "Point", "coordinates": [-73.93004992125974, 40.86090713268388]}, "type": "Feature", "properties": {"FacName": "CITY COLLEGE ACADEMY OF THE ARTS", "FacAddress": "4600 Broadway", "SchoolDist": 6.0, "FacType": 1004.0}}, {"geometry": {"type": "Point", "coordinates": [-73.94243407564457, 40.83334340401654]}, "type": "Feature", "properties": {"FacName": "COMMUNITY HEALTH ACAD OF THE HEIGHTS", "FacAddress": "504 W 158 St", "SchoolDist": 6.0, "FacType": 1004.0}}, {"geometry": {"type": "Point", "coordinates": [-73.93092243463575, 40.849256395985115]}, "type": "Feature", "properties": {"FacName": "WASHINGTON HGTS EXPEDITIONARY LEARN", "FacAddress": "511 W 182 St", "SchoolDist": 6.0, "FacType": 1004.0}}, {"geometry": {"type": "Point", "coordinates": [-73.9250194454996, 40.86567700373243]}, "type": "Feature", "properties": {"FacName": "HIGH SCH-EXCELLENCE AND INNOVATION", "FacAddress": "650 Academy St", "SchoolDist": 6.0, "FacType": 1005.0}}, {"geometry": {"type": "Point", "coordinates": [-73.92599486405625, 40.856603656282]}, "type": "Feature", "properties": {"FacName": "COLLEGE ACADEMY (THE)", "FacAddress": "549 Audubon Ave", "SchoolDist": 6.0, "FacType": 1005.0}}, {"geometry": {"type": "Point", "coordinates": [-73.92599486405625, 40.856603656282]}, "type": "Feature", "properties": {"FacName": "HIGH SCHOOL-MEDIA & COMMUNICATIONS", "FacAddress": "549 Audubon Ave", "SchoolDist": 6.0, "FacType": 1005.0}}, {"geometry": {"type": "Point", "coordinates": [-73.92599486405625, 40.856603656282]}, "type": "Feature", "properties": {"FacName": "HIGH SCHOOL-LAW & PUBLIC SERVICE", "FacAddress": "549 Audubon Ave", "SchoolDist": 6.0, "FacType": 1005.0}}, {"geometry": {"type": "Point", "coordinates": [-73.92599486405625, 40.856603656282]}, "type": "Feature", "properties": {"FacName": "HIGH SCHOOL-HEALTH CAREERS & SCIES", "FacAddress": "549 Audubon Ave", "SchoolDist": 6.0, "FacType": 1005.0}}, {"geometry": {"type": "Point", "coordinates": [-73.949958067148, 40.818519959252704]}, "type": "Feature", "properties": {"FacName": "A PHILIP RANDOLPH CAMPUS HIGH SCHOOL", "FacAddress": "433 W 135 St", "SchoolDist": 6.0, "FacType": 1005.0}}, {"geometry": {"type": "Point", "coordinates": [-73.93860259943011, 40.83831484508464]}, "type": "Feature", "properties": {"FacName": "GREGORIO LUPERON HS-SCI & MATH", "FacAddress": "501 W 165 St", "SchoolDist": 6.0, "FacType": 1005.0}}, {"geometry": {"type": "Point", "coordinates": [-73.9453684678966, 40.82884075645627]}, "type": "Feature", "properties": {"FacName": "NEW HEIGHTS ACADEMY CHARTER SCHOOL", "FacAddress": "1818 Amsterdam Ave", "SchoolDist": 6.0, "FacType": 1014.0}}, {"geometry": {"type": "Point", "coordinates": [-73.92599486405625, 40.856603656282]}, "type": "Feature", "properties": {"FacName": "EQUITY PROJECT CHARTER SCHOOL (THE)", "FacAddress": "549 Audubon Ave", "SchoolDist": 6.0, "FacType": 1012.0}}, {"geometry": {"type": "Point", "coordinates": [-73.92756734457751, 40.8599422112856]}, "type": "Feature", "properties": {"FacName": "INWOOD ACAD FOR LEADERSHIP CHARTER", "FacAddress": "93 Nagle Ave", "SchoolDist": 6.0, "FacType": 1012.0}}, {"geometry": {"type": "Point", "coordinates": [-73.94578010431132, 40.82476779207239]}, "type": "Feature", "properties": {"FacName": "GLOBAL COMMUNITY CHARTER SCHOOL", "FacAddress": "421 W 145 St", "SchoolDist": 6.0, "FacType": 1011.0}}, {"geometry": {"type": "Point", "coordinates": [-73.93572863864684, 40.83921628904922]}, "type": "Feature", "properties": {"FacName": "KIPP NYC WASHINGTON HEIGHTS CHARTER", "FacAddress": "21 Jumel Pl", "SchoolDist": 6.0, "FacType": 1011.0}}, {"geometry": {"type": "Point", "coordinates": [-73.91963783090047, 40.819331718412336]}, "type": "Feature", "properties": {"FacName": "PS 1 COURTLANDT SCHOOL", "FacAddress": "335 E 152 St", "SchoolDist": 7.0, "FacType": 1001.0}}, {"geometry": {"type": "Point", "coordinates": [-73.90835857709563, 40.81387777909957]}, "type": "Feature", "properties": {"FacName": "PS 5 PORT MORRIS", "FacAddress": "564 Jackson Ave", "SchoolDist": 7.0, "FacType": 1001.0}}, {"geometry": {"type": "Point", "coordinates": [-73.92269780355355, 40.8163695132672]}, "type": "Feature", "properties": {"FacName": "PS 18 JOHN PETER ZENGER", "FacAddress": "502 Morris Ave", "SchoolDist": 7.0, "FacType": 1001.0}}, {"geometry": {"type": "Point", "coordinates": [-73.90575526940522, 40.81289306997144]}, "type": "Feature", "properties": {"FacName": "PS 25 BILINGUAL SCHOOL", "FacAddress": "811 E 149 St", "SchoolDist": 7.0, "FacType": 1001.0}}, {"geometry": {"type": "Point", "coordinates": [-73.91641956336804, 40.82153618479328]}, "type": "Feature", "properties": {"FacName": "PS/MS 29 MELROSE SCHOOL", "FacAddress": "758 Courtlandt Ave", "SchoolDist": 7.0, "FacType": 1001.0}}, {"geometry": {"type": "Point", "coordinates": [-73.9174286723103, 40.809026472359996]}, "type": "Feature", "properties": {"FacName": "PS 30 WILTON", "FacAddress": "510 E 141 St", "SchoolDist": 7.0, "FacType": 1001.0}}, {"geometry": {"type": "Point", "coordinates": [-73.92130306832493, 40.82265672190335]}, "type": "Feature", "properties": {"FacName": "PS/MS 31 THE WILLIAM LLOYD GARRISON", "FacAddress": "250 E 156 St", "SchoolDist": 7.0, "FacType": 1001.0}}, {"geometry": {"type": "Point", "coordinates": [-73.92158233101708, 40.806432862738454]}, "type": "Feature", "properties": {"FacName": "PS 43 JONAS BRONCK", "FacAddress": "165 Brown Pl", "SchoolDist": 7.0, "FacType": 1001.0}}, {"geometry": {"type": "Point", "coordinates": [-73.92269393178611, 40.810372293141256]}, "type": "Feature", "properties": {"FacName": "PS 49 WILLIS AVENUE", "FacAddress": "383 E 139 St", "SchoolDist": 7.0, "FacType": 1001.0}}, {"geometry": {"type": "Point", "coordinates": [-73.91257854020199, 40.80805949747972]}, "type": "Feature", "properties": {"FacName": "PS 65 MOTHER HALE ACADEMY", "FacAddress": "677 E 141 St", "SchoolDist": 7.0, "FacType": 1001.0}}, {"geometry": {"type": "Point", "coordinates": [-73.92130306832493, 40.82265672190335]}, "type": "Feature", "properties": {"FacName": "JHS 151 LOU GEHRIG", "FacAddress": "250 E 156 St", "SchoolDist": 7.0, "FacType": 1002.0}}, {"geometry": {"type": "Point", "coordinates": [-73.92565490142877, 40.808236100454096]}, "type": "Feature", "properties": {"FacName": "PS 154 JONATHAN D HYATT", "FacAddress": "333 E 135 St", "SchoolDist": 7.0, "FacType": 1001.0}}, {"geometry": {"type": "Point", "coordinates": [-73.90896501483545, 40.81951317224884]}, "type": "Feature", "properties": {"FacName": "PS 157 GROVE HILL", "FacAddress": "757 Cauldwell Ave", "SchoolDist": 7.0, "FacType": 1001.0}}, {"geometry": {"type": "Point", "coordinates": [-73.90524396678612, 40.81424854382076]}, "type": "Feature", "properties": {"FacName": "PS 161 PONCE DE LEON", "FacAddress": "628 Tinton Ave", "SchoolDist": 7.0, "FacType": 1001.0}}, {"geometry": {"type": "Point", "coordinates": [-73.91199882149144, 40.81484675703568]}, "type": "Feature", "properties": {"FacName": "JHS 162 LOLA RODRIGUEZ DE TIO", "FacAddress": "600 St Anns Ave", "SchoolDist": 7.0, "FacType": 1002.0}}, {"geometry": {"type": "Point", "coordinates": [-73.9197766422583, 40.809080279767805]}, "type": "Feature", "properties": {"FacName": "PS 179", "FacAddress": "468 E 140 St", "SchoolDist": 7.0, "FacType": 1001.0}}, {"geometry": {"type": "Point", "coordinates": [-73.92596673356684, 40.81367634223751]}, "type": "Feature", "properties": {"FacName": "MS 203", "FacAddress": "339 Morris Ave", "SchoolDist": 7.0, "FacType": 1002.0}}, {"geometry": {"type": "Point", "coordinates": [-73.9207827613208, 40.81356859775425]}, "type": "Feature", "properties": {"FacName": "MS 223 LAB SCHOOL OF FIN & TECH", "FacAddress": "360 E 145 St", "SchoolDist": 7.0, "FacType": 1002.0}}, {"geometry": {"type": "Point", "coordinates": [-73.91875645182566, 40.81031194570139]}, "type": "Feature", "properties": {"FacName": "PS/IS 224", "FacAddress": "345 Brook Ave", "SchoolDist": 7.0, "FacType": 1002.0}}, {"geometry": {"type": "Point", "coordinates": [-73.91387208076516, 40.813385234962716]}, "type": "Feature", "properties": {"FacName": "PS 277", "FacAddress": "519 St Anns Ave", "SchoolDist": 7.0, "FacType": 1001.0}}, {"geometry": {"type": "Point", "coordinates": [-73.90539296581122, 40.8187115830152]}, "type": "Feature", "properties": {"FacName": "SO BRONX ACADEMY-APPLIED MEDIA", "FacAddress": "778 Forest Ave", "SchoolDist": 7.0, "FacType": 1002.0}}, {"geometry": {"type": "Point", "coordinates": [-73.90539296581122, 40.8187115830152]}, "type": "Feature", "properties": {"FacName": "ACADEMY OF PUBLIC RELATIONS", "FacAddress": "778 Forest Ave", "SchoolDist": 7.0, "FacType": 1002.0}}, {"geometry": {"type": "Point", "coordinates": [-73.91875645182566, 40.81031194570139]}, "type": "Feature", "properties": {"FacName": "ACADEMY OF APPLIED MATH AND TECH", "FacAddress": "345 Brook Ave", "SchoolDist": 7.0, "FacType": 1002.0}}, {"geometry": {"type": "Point", "coordinates": [-73.92252027326518, 40.82300887027134]}, "type": "Feature", "properties": {"FacName": "CONCOURSE VILLAGE ELEMENTARY SCHOOL", "FacAddress": "750 Concourse Village W", "SchoolDist": 7.0, "FacType": 1008.0}}, {"geometry": {"type": "Point", "coordinates": [-73.9197766422583, 40.809080279767805]},